,site,county,years,lat,lon
0,aberdeen-mannofield-resr,aberdeenshire,[2007],57.128,-2.14
1,aboyne-no-2,aberdeenshire,"[1992, 1993, 1994, 1995, 1996, 1997, 1998, 1999, 2000, 2001, 2002, 2003, 2004, 2005, 2006, 2007, 2008, 2009, 2010, 2011, 2012, 2013, 2014, 2015, 2016, 2017, 2018, 2019, 2020]",57.076,-2.841
2,ballater-field-centre,aberdeenshire,[1998],57.047,-3.043
3,balmoral,aberdeenshire,[1990],57.037,-3.22
4,cairnorrie-drakemyre-croft,aberdeenshire,"[1995, 1996, 1997, 1998, 1999, 2000, 2001]",57.464,-2.208
5,cairnwell,aberdeenshire,"[1994, 1995, 1996, 1997, 1998, 1999, 2000, 2001, 2002, 2003, 2004, 2005, 2006, 2007, 2008, 2009, 2010, 2011, 2012, 2013, 2014, 2015, 2016, 2017, 2018, 2019, 2020]",56.879,-3.421
6,craibstone,aberdeenshire,[1975],57.187,-2.215
7,culterty-no-2,aberdeenshire,"[1995, 1998, 1999]",57.325,-2.003
8,dinnet,aberdeenshire,"[1981, 1982]",57.109,-2.916
9,dyce,aberdeenshire,"[1957, 1958, 1959, 1960, 1961, 1962, 1963, 1964, 1965, 1966, 1967, 1968, 1969, 1970, 1971, 1972, 1973, 1974, 1975, 1977, 1978, 1979, 1980, 1981, 1982, 1983, 1984, 1985, 1986, 1987, 1988, 1989, 1990, 1991, 1992, 1993, 1994, 1995, 1996, 1997, 1998, 1999, 2000, 2001, 2002, 2003, 2004, 2005, 2006, 2007, 2008, 2009, 2010, 2011, 2012, 2013, 2014, 2015, 2016, 2017, 2018, 2019, 2020]",57.205,-2.205
10,fraserburgh,aberdeenshire,"[1969, 1970, 1971, 1972, 1973, 1974, 1975, 1976, 1977, 1978, 1979, 1980, 1981, 1982, 1983, 1984, 1985, 1986, 1987, 1988, 1989, 1990]",57.697,-2.003
11,gartly,aberdeenshire,[1982],57.379,-2.795
12,peterhead-harbour,aberdeenshire,"[1979, 1980, 1981, 1982, 1983, 1984, 1985, 1986, 1987, 1988, 1989, 1990, 1991, 1992, 1993, 1994, 1995, 1996, 1997, 1998, 1999, 2000, 2001, 2002, 2003, 2004, 2005, 2006, 2007, 2008, 2009, 2010, 2011, 2012, 2013, 2014, 2015, 2016, 2017, 2018, 2019, 2020]",57.502,-1.774
13,rosehearty,aberdeenshire,"[1995, 1996, 1997, 1998, 1999, 2000, 2004, 2005, 2006, 2007, 2008, 2009, 2010, 2011, 2012]",57.698,-2.123
14,bell-rock,angus,"[1969, 1970, 1971, 1972, 1973, 1974, 1975, 1976, 1977, 1978, 1979, 1980, 1981, 1982, 1983, 1984, 1985, 1986, 1987]",56.436,-2.386
15,dundee,angus,[1984],56.47,-2.94
16,forfar-no-2,angus,"[1981, 1982, 1983]",56.657,-2.775
17,forfar-no-3,angus,"[1986, 1987, 1988, 1989, 1990, 1991, 1992, 1993, 1994]",56.683,-2.929
18,kirriemuir-st-marys-rectory,angus,[1997],56.675,-3.012
19,montrose,angus,[1987],56.746,-2.481
20,mylnefield,angus,"[1959, 1960, 1961, 1962, 1963, 1964, 1965, 1966, 1967, 1968, 1969, 1970, 1971, 1972, 1973, 1974, 1975, 1976, 1977, 1978, 1979, 1980, 1981, 1982, 1983, 1984, 1985, 1986, 1987, 1988, 1989, 1990, 1991, 1992, 1993, 1994, 1995, 1996, 1997, 1998, 1999, 2000, 2001]",56.456,-3.07
21,whitehillocks,angus,[2010],56.906,-2.907
22,aldergrove,antrim,"[1949, 1950, 1951, 1952, 1953, 1954, 1955, 1956, 1957, 1958, 1959, 1960, 1961, 1962, 1963, 1964, 1965, 1966, 1967, 1968, 1969, 1970, 1971, 1972, 1973, 1974, 1975, 1976, 1977, 1978, 1979, 1980, 1981, 1982, 1983, 1984, 1985, 1986, 1987, 1988, 1989, 1990, 1991, 1992, 1993, 1994, 1995, 1996, 1997, 1998, 1999, 2000, 2001, 2002, 2003, 2004, 2005, 2006, 2007, 2008, 2009, 2010, 2011, 2012, 2013, 2014, 2015, 2016, 2017, 2018, 2019, 2020]",54.664,-6.225
23,altnahinch-filters,antrim,"[1965, 1966, 1967, 1968, 1969, 1970, 1971, 1972, 1973, 1974, 1975, 1976, 1977, 1978, 1979, 1980, 1981, 1982, 1983, 1984, 1985, 1986, 1987, 1988, 1989, 1990, 1991, 1992, 1993, 1994, 1995, 1996, 1997, 1998, 1999, 2000, 2001]",55.048,-6.255
24,ballypatrick-forest,antrim,"[1968, 1969, 1970, 1971, 1972, 1973, 1974, 1975, 1976, 1977, 1978, 1979, 1980, 1981, 1982, 1983, 1984, 1985, 1986, 1987, 1988, 1989, 1990, 1991, 1992, 1993, 1994, 1995, 1996, 1997, 1998, 1999, 2000, 2001, 2002, 2003, 2004, 2005, 2006, 2007, 2008, 2009, 2010, 2011, 2012, 2013, 2014, 2015, 2016, 2017, 2018, 2019, 2020]",55.181,-6.154
25,belfast-harbour,antrim,"[1969, 1970, 1971, 1972, 1973, 1974, 1975, 1976, 1977, 1978, 1979, 1980, 1981, 1982, 1983, 1984, 1985, 1986, 1987, 1988, 1989, 1990, 1991, 1992, 1993, 1994]",54.627,-5.892
26,dungonnell-filters-no-2,antrim,[1992],54.989,-6.144
27,killylane,antrim,"[1998, 1999, 2000, 2001]",54.817,-6.005
28,kilroot-power-station,antrim,[1984],54.727,-5.773
29,larne,antrim,"[1997, 1998, 1999, 2000, 2001, 2002, 2003, 2004]",54.852,-5.832
30,lisnafillan,antrim,"[1967, 1968, 1969, 1970, 1971, 1972, 1973, 1974, 1975, 1976, 1977, 1978, 1979, 1980, 1981, 1982, 1983, 1984, 1985, 1986, 1994, 1995, 1996, 1997, 1998, 1999]",54.857,-6.326
31,lowtown,antrim,"[1994, 1995, 1996]",54.831,-6.01
32,nutts-corner,antrim,"[1958, 1959, 1960]",54.632,-6.149
33,oldpark-filters,antrim,"[1994, 1995]",54.627,-5.949
34,parkmore-forest,antrim,[1992],55.019,-6.12
35,portglenone,antrim,"[1994, 1995, 1996, 1997, 1998, 1999, 2000, 2001, 2002, 2003, 2004, 2005, 2006, 2007, 2008, 2009, 2010, 2011, 2012, 2013, 2014, 2015, 2016, 2017, 2018, 2019, 2020]",54.865,-6.458
36,ardentinny,argyll-in-strathclyde-region,"[1979, 1980, 1981, 1982, 1983, 1984, 1985, 1986, 1987, 1988, 1989, 1990, 1991, 1992, 1993, 1994, 1995, 1996, 1997]",56.046,-4.914
37,aros,argyll-in-strathclyde-region,"[1981, 1983]",56.536,-5.981
38,benmore-younger-botanic-garden,argyll-in-strathclyde-region,[1992],56.028,-4.985
39,black-mount,argyll-in-strathclyde-region,"[1989, 1991, 1992]",56.545,-4.796
40,colonsay-hotel,argyll-in-strathclyde-region,"[1993, 1998]",56.069,-6.195
41,dunstaffnage,argyll-in-strathclyde-region,"[1973, 1974, 1975, 1976, 1977, 1978, 1979, 1980, 1981, 1982, 1983, 1984, 1985, 1986, 1987, 1988, 1989, 1990, 1991, 1992, 1993, 1994, 1995, 1996, 1997, 1998, 1999, 2000, 2001, 2002, 2003, 2004, 2005, 2006, 2007, 2008, 2009, 2010, 2011, 2012, 2013, 2014, 2015, 2016, 2017, 2018, 2019, 2020]",56.45,-5.44
42,islay-port-ellen,argyll-in-strathclyde-region,"[1998, 1999, 2000, 2001, 2002, 2003, 2004, 2005, 2006, 2007, 2008, 2009, 2010, 2011, 2012, 2013, 2014, 2015, 2016, 2017, 2018, 2019, 2020]",55.681,-6.25
43,knapdale-forest-no-2,argyll-in-strathclyde-region,[1981],56.059,-5.482
44,lephinmore,argyll-in-strathclyde-region,"[1959, 1960, 1961, 1962, 1963, 1964, 1965, 1966, 1967]",56.084,-5.24
45,machrihanish,argyll-in-strathclyde-region,"[1965, 1966, 1967, 1968, 1969, 1970, 1971, 1972, 1973, 1974, 1975, 1976, 1977, 1978, 1979, 1980, 1981, 1982, 1983, 1984, 1985, 1986, 1987, 1988, 1989, 1990, 1991, 1992, 1993, 1994, 1995, 1996, 1997, 1998, 1999, 2000, 2001, 2002, 2003, 2004, 2005, 2006, 2007, 2008, 2009, 2010, 2011, 2012, 2013, 2014, 2015, 2016, 2017, 2018, 2019, 2020]",55.441,-5.697
46,orsay,argyll-in-strathclyde-region,[1997],55.674,-6.511
47,tiree,argyll-in-strathclyde-region,"[1957, 1958, 1959, 1960, 1961, 1962, 1963, 1964, 1965, 1966, 1967, 1968, 1969, 1970, 1971, 1972, 1973, 1974, 1975, 1976, 1977, 1978, 1979, 1980, 1981, 1982, 1983, 1984, 1985, 1986, 1987, 1988, 1989, 1990, 1991, 1992, 1993, 1994, 1995, 1996, 1997, 1998, 1999, 2000, 2001, 2002, 2003, 2004, 2005, 2006, 2007, 2008, 2009, 2010, 2011, 2012, 2013, 2014, 2015, 2016, 2017, 2018, 2019, 2020]",56.5,-6.881
48,annaghmore,armagh,"[1984, 1991, 1992]",54.459,-6.603
49,armagh,armagh,"[1992, 1995, 2018, 2019, 2020]",54.352,-6.65
50,glenanne-no-2,armagh,"[1993, 1994, 1995, 1996, 1997, 1998, 1999, 2000, 2001, 2002, 2003, 2004, 2005, 2006, 2007, 2008, 2009, 2010, 2011, 2012, 2013, 2014, 2015, 2016, 2017, 2018, 2019, 2020]",54.237,-6.504
51,loughgall-no-1,armagh,"[1968, 1969, 1970, 1971, 1972, 1973, 1974, 1975, 1976, 1977, 1978, 1979, 1980, 1981, 1982, 1983, 1984, 1985, 1986, 1987, 1988, 1989, 1990, 1991, 1992, 1993, 1994, 1995]",54.408,-6.604
52,portadown-s-wks,armagh,"[1969, 1970, 1971, 1973, 1974]",54.438,-6.43
53,tandragee-ballylisk,armagh,[1991],54.369,-6.427
54,avonmouth,avon,"[1970, 1971, 1972, 1973, 1974, 1975, 1976, 1977, 1978, 1979, 1980, 1981, 1982, 1983, 1984, 1985, 1986, 1987, 1988, 1989, 1990, 1991, 1992, 1993, 1994, 1995, 1996, 1997, 1998, 1999, 2000, 2001, 2002, 2003, 2004, 2005, 2006, 2007, 2008, 2009, 2010, 2011, 2012, 2013, 2014, 2015, 2016, 2017, 2018, 2019, 2020]",51.506,-2.717
55,bristol-weather-centre,avon,"[1981, 1982, 1983, 1984, 1985, 1986, 1987, 1988, 1989, 1990, 1991, 1992, 1993, 1994, 1995, 1996, 1997, 1998, 1999, 2000, 2001]",51.453,-2.6
56,filton,avon,"[2001, 2002, 2003, 2004, 2005, 2006, 2007, 2008, 2009, 2010, 2011, 2012, 2013, 2014, 2015, 2016, 2017, 2018]",51.522,-2.577
57,ardrossan,ayrshire,"[1969, 1970, 1971, 1972, 1973, 1974, 1975, 1976, 1977, 1978, 1979, 1980, 1981, 1982, 1983, 1984, 1985, 1986, 1987]",55.642,-4.82
58,auchincruive,ayrshire,"[1973, 1974, 1975, 1976, 1977, 1978, 1979, 1980, 1981, 1982, 1983, 1984, 1985, 1986, 1987, 1988, 1989, 1990, 1991, 1992, 1993]",55.477,-4.565
59,cumnock,ayrshire,"[1998, 2000]",55.453,-4.274
60,dalry,ayrshire,"[1994, 1997]",55.718,-4.719
61,hunterston-no-3,ayrshire,"[1969, 1970, 1971, 1972, 1992]",55.723,-4.893
62,prestwick-gannet,ayrshire,"[1996, 1997, 1998, 1999, 2000, 2001, 2002, 2003, 2004, 2005, 2006, 2007, 2008, 2009, 2010, 2011, 2012, 2013, 2014, 2015, 2016, 2017, 2018, 2019, 2020]",55.515,-4.585
63,prestwick-no-2,ayrshire,"[1957, 1958, 1959, 1960, 1961, 1962, 1963, 1964, 1965, 1966, 1967, 1968, 1969, 1970, 1971, 1972, 1973, 1974, 1975, 1976, 1977, 1978, 1979, 1980, 1981, 1982, 1983, 1984, 1985, 1986, 1987, 1988, 1989, 1990, 1991, 1992, 1993]",55.501,-4.584
64,saughall,ayrshire,"[1988, 1989, 1990, 1991, 1992, 1993, 1994, 1995, 1997, 1998, 2000, 2001, 2002, 2003, 2004, 2005, 2006, 2007, 2008]",55.601,-4.226
65,clashnoir,banffshire,"[1977, 1978, 1979, 1980, 1981]",57.282,-3.287
66,keith,banffshire,"[1978, 1979, 1980, 1981, 1982, 1983, 1984, 1985, 1986, 1987, 1988, 1989, 1990, 1991, 1992, 1993, 1994, 1995]",57.553,-2.949
67,bedford,bedfordshire,"[1970, 1971, 1972, 1973, 1974, 1975, 1976, 1977, 1978, 1979, 1980, 1981, 1982, 1983, 1984, 1985, 1986, 1987, 1988, 1989, 1990, 1991, 1992, 1993, 1994, 1995, 1996, 1997, 1998, 1999, 2000, 2001, 2002, 2003, 2004, 2005, 2006, 2007, 2008, 2009, 2010, 2011, 2012, 2013, 2014, 2015, 2016, 2017, 2018, 2019, 2020]",52.227,-0.465
68,cardington,bedfordshire,"[1957, 1958, 1959, 1960, 1961, 1962, 1963, 1964, 1965, 1966, 1967, 1968, 1969, 1970, 1971, 1972, 1973, 1974, 1975, 1976, 1977, 1978, 1979, 1980, 1981, 1982, 1983, 1984, 1985, 1986, 1987]",52.104,-0.423
69,silsoe,bedfordshire,"[1994, 1995, 1996, 1997, 1998, 1999]",52.01,-0.41
70,woburn,bedfordshire,"[1994, 1995, 1996, 1997, 1998, 1999, 2000, 2001, 2002, 2003, 2005]",52.014,-0.596
71,bracknell-beaufort-park,berkshire,"[1991, 1992, 1993, 1994, 1995, 1996, 1997, 1998, 1999, 2000, 2001, 2002, 2003]",51.39,-0.786
72,lambourn,berkshire,"[1994, 1995, 1996]",51.533,-1.49
73,reading-university-whiteknights,berkshire,"[1994, 1995, 1996, 1997, 1998, 1999, 2000, 2001]",51.441,-0.938
74,blythe,berwickshire,[1999],55.737,-2.662
75,charterhall,berwickshire,"[1987, 1988, 1989, 1990, 1991, 1992, 1993, 1994, 1995, 1996, 1997, 1998, 1999, 2000, 2001, 2002, 2003, 2004, 2005, 2006, 2007, 2008, 2009, 2010, 2011, 2012, 2013, 2014, 2015, 2016, 2017, 2018, 2019, 2020]",55.709,-2.385
76,mertoun,berwickshire,"[1961, 1962, 1963, 1964, 1965, 1966, 1967, 1968, 1969]",55.581,-2.562
77,amersham-no-2,buckinghamshire,"[1981, 1982, 1983, 1984, 1985, 1986, 1987, 1988, 1989, 1990, 1991, 1992, 1993, 1994, 1995, 1996, 1997, 1998]",51.668,-0.592
78,chenies-no-2,buckinghamshire,"[1992, 1993, 1994, 1995, 1996, 1997, 1998]",51.69,-0.534
79,grendon-underwood,buckinghamshire,[1998],51.889,-1.016
80,high-wycombe-hqair,buckinghamshire,"[1995, 1996, 1997, 1998, 1999, 2000, 2001, 2002, 2003, 2004, 2005, 2006, 2007, 2008, 2009, 2010, 2011, 2012, 2013, 2014, 2015, 2016, 2017, 2018, 2019, 2020]",51.682,-0.807
81,bute-rothesay,buteshire,[1986],55.839,-5.064
82,gt-cumbrae-millport,buteshire,"[1984, 1998]",55.749,-4.908
83,dounreay,caithness,"[1969, 1970, 1971, 1972, 1973, 1974, 1975, 1976, 1977, 1978, 1979, 1980, 1981, 1982, 1983]",58.579,-3.739
84,scrabster-harbour,caithness,[2001],58.612,-3.547
85,wick-airport,caithness,"[1957, 1958, 1959, 1960, 1961, 1962, 1963, 1964, 1965, 1966, 1967, 1968, 1969, 1970, 1971, 1972, 1973, 1974, 1975, 1976, 1977, 1978, 1979, 1980, 1981, 1982, 1983, 1984, 1985, 1986, 1987, 1988, 1989, 1990, 1991, 1992, 1993, 1994, 1995, 1996, 1997, 1998, 1999, 2000, 2001, 2002, 2003, 2004, 2005, 2006, 2007, 2008, 2009, 2010, 2011, 2012, 2013, 2014, 2015, 2016, 2017, 2018, 2019, 2020]",58.454,-3.09
86,boxworth-samson-field,cambridgeshire,"[1994, 1995, 1996, 1997, 1998, 1999, 2000, 2001]",52.251,-0.033
87,cambridge-botanic-garden,cambridgeshire,"[1994, 1995, 1996, 1997, 1998, 1999, 2000, 2001]",52.194,0.129
88,cambridge-niab,cambridgeshire,"[1994, 1995, 1996, 1997, 1998, 1999, 2000, 2001]",52.245,0.1
89,march,cambridgeshire,[1998],52.55,0.093
90,mepal,cambridgeshire,"[1994, 1995, 1996, 1997, 1998, 1999, 2000, 2001]",52.422,0.1
91,monks-wood,cambridgeshire,"[1994, 1995, 1996, 1997, 1998, 1999, 2000, 2001, 2002, 2003, 2004, 2005, 2006, 2007, 2008, 2009, 2010, 2011, 2012, 2013, 2014, 2015, 2016, 2017, 2018, 2019, 2020]",52.402,-0.237
92,wittering,cambridgeshire,"[1957, 1958, 1959, 1960, 1961, 1962, 1963, 1964, 1965, 1966, 1967, 1968, 1970, 1971, 1972, 1973, 1974, 1975, 1976, 1977, 1978, 1979, 1980, 1981, 1982, 1983, 1984, 1985, 1986, 1987, 1988, 1989, 1990, 1991, 1992, 1993, 1994, 1995, 1996, 1997, 1998, 1999, 2000, 2001, 2002, 2003, 2004, 2005, 2006, 2007, 2008, 2009, 2010, 2011, 2012, 2013, 2014, 2015, 2016, 2017, 2018, 2019, 2020]",52.612,-0.468
93,wyton,cambridgeshire,"[1976, 1977, 1978, 1979, 1980, 1981, 1982, 1983, 1984, 1985, 1986, 1987, 1988, 1989, 1990, 1991, 1992, 1993, 1994, 1995]",52.354,-0.116
94,delamere-forest-no-2,cheshire,[1989],53.237,-2.707
95,macclesfield,cheshire,[1997],53.265,-2.136
96,ness-gardens,cheshire,"[1994, 1995, 1996, 1997, 1998, 1999, 2000, 2001]",53.272,-3.047
97,rostherne,cheshire,"[2012, 2013]",53.36,-2.382
98,rostherne-no-2,cheshire,"[2012, 2013, 2014, 2015, 2016, 2017, 2018, 2019, 2020]",53.36,-2.382
99,woodford,cheshire,"[2003, 2004, 2005, 2006, 2007, 2008, 2009, 2010, 2011, 2012]",53.339,-2.155
100,loftus,cleveland,"[1996, 1997, 1998, 1999, 2000, 2001, 2002, 2003, 2004, 2005, 2006, 2007, 2008, 2009, 2010, 2011, 2012, 2013, 2014, 2015, 2016, 2017, 2018, 2019, 2020]",54.563,-0.864
101,south-gare,cleveland,"[1974, 1975, 1976, 1977, 1978, 1979, 1980, 1981, 1982, 1983, 1984]",54.647,-1.138
102,colwyn-bay-nursery-gardens,clwyd,[1980],53.293,-3.712
103,hawarden-airport,clwyd,"[1992, 1993, 1994, 1995, 1996, 1997, 1998, 1999, 2000, 2001, 2002, 2003, 2004, 2005, 2006, 2007, 2008, 2009, 2010, 2011, 2012, 2013, 2014, 2015, 2016, 2017, 2018, 2019, 2020]",53.175,-2.986
104,loggerheads-colomendy-centre,clwyd,"[1994, 1995, 1996, 1997, 1998, 1999, 2000, 2001]",53.149,-3.197
105,moel-y-crio,clwyd,"[1997, 1998, 1999, 2000, 2001, 2002, 2003, 2004, 2005]",53.22,-3.209
106,rhyl-no-2,clwyd,"[1992, 1993, 1994, 1995, 1996, 1997, 1998, 1999, 2000, 2001, 2002, 2003, 2004, 2005, 2006, 2007, 2008, 2009, 2010, 2011, 2012, 2013, 2014, 2015, 2016, 2017, 2018, 2019, 2020]",53.259,-3.509
107,bude,cornwall,"[1994, 1995, 1996, 1997, 1998, 1999, 2000]",50.829,-4.546
108,camborne,cornwall,"[1978, 1979, 1980, 1981, 1982, 1983, 1984, 1985, 1986, 1987, 1988, 1989, 1990, 1991, 1992, 1993, 1994, 1995, 1996, 1997, 1998, 1999, 2000, 2001, 2002, 2003, 2004, 2005, 2006, 2007, 2008, 2009, 2010, 2011, 2012, 2013, 2014, 2015, 2016, 2017, 2018, 2019, 2020]",50.218,-5.328
109,cardinham-bodmin,cornwall,"[1991, 1992, 1993, 1994, 1995, 1996, 1997, 1998, 1999, 2000, 2001, 2002, 2003, 2004, 2005, 2006, 2007, 2008, 2009, 2010, 2011, 2012, 2013, 2014, 2015, 2016, 2017, 2018, 2019, 2020]",50.502,-4.667
110,culdrose,cornwall,"[1977, 1978, 1979, 1980, 1981, 1982, 1983, 1984, 1985, 1986, 1987, 1988, 1989, 1990, 1991, 1992, 1993, 1994, 1995, 1996, 1997, 1998, 1999, 2000, 2001, 2002, 2003, 2004, 2005, 2006, 2007, 2008, 2009, 2010, 2011, 2012, 2013, 2014, 2015, 2016, 2017, 2018, 2019, 2020]",50.084,-5.257
111,davidstow-moor,cornwall,"[1997, 1998, 2000, 2001, 2002]",50.641,-4.622
112,delabole,cornwall,"[1978, 1979, 1980, 1981, 1982]",50.619,-4.725
113,falmouth,cornwall,"[1994, 1995]",50.152,-5.078
114,goonhilly-down,cornwall,"[1982, 1983, 1984]",50.049,-5.189
115,gwennap-head,cornwall,"[1971, 1972, 1973, 1974, 1975, 1976, 1977, 1978, 1979, 1980, 1981, 1982, 1983, 1984, 1985, 1986, 1987, 1988, 1989, 1990, 1991, 1992]",50.037,-5.681
116,heligan,cornwall,[1998],50.283,-4.807
117,lizard,cornwall,"[1970, 1971, 1972, 1973, 1974, 1975, 1976, 1977, 1978, 1979, 1980, 1981, 1982]",49.963,-5.208
118,lizard-lighthouse,cornwall,[2000],49.959,-5.202
119,st-mawgan,cornwall,"[1957, 1958, 1959, 1960, 1961, 1962, 1963, 1964, 1965, 1966, 1967, 1968, 1969, 1970, 1971, 1972, 1973, 1974, 1975, 1976, 1977, 1978, 1979, 1980, 1981, 1982, 1983, 1984, 1985, 1986, 1987, 1988, 1989, 1990, 1991, 1992, 1993, 1994, 1995, 1996, 1997, 1998, 1999, 2000, 2001, 2002, 2003, 2004, 2005, 2006, 2007, 2008]",50.439,-4.998
120,treknow,cornwall,[1994],50.646,-4.755
121,aspatria,cumbria,"[1997, 1998, 1999, 2000, 2001, 2002, 2003]",54.768,-3.316
122,bridgefoot,cumbria,[1999],54.649,-3.459
123,carlisle,cumbria,"[1961, 1962, 1963, 1964, 1965, 1966, 1967, 1968, 1969, 1970, 1971, 1972, 1973, 1974, 1975, 1976, 1977, 1978, 1979, 1980, 1981, 1982, 1983, 1984, 1985, 1986, 1987, 1988, 1989, 1990, 1991, 1992, 1993, 1994, 1995, 1996, 1997, 1998, 1999, 2000, 2001, 2002, 2003, 2004, 2005, 2006, 2007, 2008]",54.934,-2.964
124,drumburgh,cumbria,[1997],54.931,-3.158
125,eskmeals,cumbria,"[1979, 1980, 1981, 1982, 1983, 1984, 1985, 1986, 1987, 1988, 1989, 1990, 1991, 1992, 1993, 1994, 1995, 1996, 1997, 1998, 1999, 2000, 2001]",54.325,-3.408
126,great-dun-fell,cumbria,"[1964, 1965, 1966, 1967, 1968, 1969, 1970, 1971, 1972, 1973, 1974, 1975, 1976, 1977, 1978, 1979, 1980, 1981, 1982, 1983, 1984, 1985, 1986, 1987, 1988, 1989, 1990, 1991, 1992, 1993, 1994, 1995, 1996, 1997, 1998, 1999, 2000, 2001, 2002, 2003, 2004]",54.684,-2.45
127,great-dun-fell-no-2,cumbria,"[1994, 1995, 1996, 1997, 1998, 1999, 2000, 2001, 2002, 2003, 2004, 2005, 2006, 2007, 2008, 2009, 2010, 2011, 2012, 2013, 2014, 2015, 2016, 2017, 2018, 2019, 2020]",54.684,-2.451
128,grizedale,cumbria,"[1996, 1997, 1998, 1999, 2000]",54.338,-3.021
129,keswick,cumbria,"[1992, 1993, 1994, 1995, 1996, 1997, 1998, 1999, 2000, 2001, 2002, 2003, 2004, 2005, 2006, 2007, 2008, 2009, 2010, 2011, 2012, 2013, 2014, 2015, 2016, 2017, 2018, 2019, 2020]",54.614,-3.157
130,moor-house,cumbria,"[1970, 1971, 1972, 1973, 1974, 1975, 1976, 1977, 1978, 1979, 1980]",54.69,-2.377
131,sellafield,cumbria,"[1970, 1971, 1972, 1973, 1974, 1975, 1976, 1977, 1978, 1979, 1980, 1983, 1984, 1985, 1986, 1987, 1988, 1989, 1990, 1991, 1992, 1993, 1994, 1995, 1996]",54.415,-3.501
132,sellafield-no-2,cumbria,"[1984, 1991]",54.426,-3.507
133,shap,cumbria,"[1992, 1993, 1994, 1995, 1996, 1997, 1998, 1999, 2000, 2001, 2002, 2003, 2004, 2005, 2006, 2007, 2008, 2009, 2010, 2011, 2012, 2013, 2014, 2015, 2016, 2017, 2018, 2019, 2020]",54.502,-2.685
134,spadeadam,cumbria,"[1970, 1971, 1972, 1973]",55.041,-2.629
135,spadeadam-no-2,cumbria,"[1993, 1994, 1995, 1996, 1997, 1998, 1999, 2000, 2001, 2002, 2003, 2004, 2005, 2006, 2007, 2008, 2009, 2010, 2011, 2012, 2013, 2014, 2015, 2016, 2017, 2018, 2019, 2020]",55.05,-2.554
136,st-bees-head-no-2,cumbria,"[1992, 1993, 1994, 1995, 1996, 1997, 1998, 1999, 2000, 2001, 2002, 2003, 2004, 2005, 2006, 2007, 2008, 2009, 2010, 2011, 2012, 2013, 2014, 2015, 2016, 2017, 2018, 2019, 2020]",54.518,-3.615
137,walney-island,cumbria,"[1992, 1993, 1994, 1995, 1996, 1997, 1998, 1999, 2000, 2001, 2002, 2003, 2004, 2005, 2006, 2007, 2008, 2009, 2010, 2011, 2012, 2013, 2014, 2015, 2016, 2017, 2018, 2019, 2020]",54.125,-3.258
138,warcop-range,cumbria,"[1992, 1993, 1994, 1995, 1996, 1997, 1998, 1999, 2000, 2001, 2002, 2003, 2004, 2005, 2006, 2007, 2008, 2009, 2010, 2011, 2012, 2013, 2014, 2015, 2016, 2017, 2018, 2019, 2020]",54.572,-2.413
139,widdybank-fell,cumbria,"[1994, 1995]",54.663,-2.284
140,ashover-no-2,derbyshire,[1996],53.162,-1.48
141,barbrook,derbyshire,"[1978, 1979]",53.288,-1.579
142,berry-head,devon,"[1993, 1994, 1995, 1996, 1997, 1998, 1999, 2000, 2001, 2002, 2003, 2004, 2005, 2006, 2007, 2008, 2009, 2010, 2011, 2012, 2013, 2014, 2015, 2016, 2017, 2018, 2019, 2020]",50.399,-3.484
143,bovey-tracey-yarner-wood-no-2,devon,"[1994, 1995, 1996, 1997, 1998, 1999, 2000, 2001]",50.592,-3.717
144,brixham,devon,"[1997, 1998, 1999, 2000, 2001, 2002, 2003, 2004, 2005, 2006, 2007]",50.397,-3.51
145,burrington-common-head,devon,"[1977, 1978, 1979, 1980, 1981, 1982, 1983, 1984, 1985, 1986, 1987, 1988, 1989, 1990, 1991, 1992, 1993, 1994, 1995, 1996, 1997, 1998, 1999]",50.933,-3.987
146,chivenor,devon,"[1957, 1958, 1959, 1960, 1961, 1962, 1963, 1964, 1965, 1966, 1967, 1968, 1969, 1970, 1971, 1972, 1973, 1974, 1980, 1981, 1982, 1983, 1984, 1985, 1986, 1987, 1988, 1989, 1990, 1991, 1992, 1993, 1994, 1995, 1996, 1997, 1998, 1999, 2000, 2001, 2002, 2003, 2004, 2005, 2006, 2007, 2008, 2009, 2010, 2011, 2012, 2013, 2014, 2015, 2016, 2017, 2018, 2019, 2020]",51.089,-4.149
147,clyst-honiton,devon,"[1993, 1994, 1995, 1996, 1997]",50.722,-3.439
148,dunkeswell-aerodrome,devon,"[1991, 1992, 1993, 1994, 1995, 1996, 1997, 1998, 1999, 2000, 2001, 2002, 2003, 2004, 2005, 2006, 2007, 2008, 2009, 2010, 2011, 2012, 2013, 2014, 2015, 2016, 2017, 2018, 2019, 2020]",50.86,-3.24
149,exeter-airport,devon,"[1970, 1971, 1972, 1973, 1974, 1975, 1976, 1977, 1978, 1979, 1980, 1981, 1982, 1983, 1984, 1985, 1986, 1987, 1988, 1989, 1990, 1991]",50.731,-3.417
150,exeter-airport-no-2,devon,"[2016, 2017, 2018, 2019, 2020]",50.737,-3.406
151,hemyock,devon,"[1994, 1995, 1996, 1997, 1998, 1999, 2000, 2001]",50.909,-3.227
152,north-hessary-tor,devon,"[1997, 1998, 1999, 2000, 2001, 2002, 2003, 2004, 2005]",50.549,-4.009
153,north-wyke,devon,"[1994, 1995, 1996, 1997, 1998, 1999, 2000, 2001, 2002, 2003, 2004, 2005, 2006, 2007, 2008, 2009, 2010, 2011, 2012, 2013, 2014, 2015, 2016, 2017, 2018, 2019, 2020]",50.769,-3.904
154,okehampton-east-okement-farm,devon,"[1993, 1995]",50.703,-3.977
155,plymouth-mountbatten,devon,"[1949, 1950, 1951, 1952, 1953, 1954, 1955, 1956, 1957, 1958, 1959, 1960, 1961, 1962, 1963, 1964, 1965, 1966, 1967, 1968, 1969, 1970, 1971, 1972, 1973, 1974, 1975, 1976, 1977, 1978, 1979, 1980, 1981, 1982, 1983, 1984, 1985, 1986, 1987, 1988, 1989, 1990, 1991, 1992, 1993, 1994, 1995, 1996, 1997, 1998, 1999, 2000, 2001, 2002, 2003, 2004, 2005, 2006, 2007, 2008, 2009, 2010, 2011, 2012, 2013, 2014, 2015, 2016, 2017, 2018, 2019, 2020]",50.355,-4.121
156,princetown-prison,devon,[1998],50.549,-4.001
157,rousdon-no-2,devon,[1998],50.711,-3
158,rumleigh,devon,"[1994, 1995]",50.491,-4.196
159,salcombe-no-2,devon,[1997],50.24,-3.767
160,slapton,devon,"[1994, 1995, 1996, 1997, 1998, 1999, 2000, 2001]",50.293,-3.652
161,strete,devon,"[1992, 1993, 1994, 1995, 1996, 1997, 1998, 1999, 2000]",50.309,-3.633
162,tavistock-kilworthy-college,devon,"[1980, 1981, 1982, 1983]",50.572,-4.145
163,torquay-abbey-park,devon,[1996],50.465,-3.541
164,bournemouth-kings-park,dorset,[1995],50.734,-1.824
165,fontmell-magna,dorset,"[1989, 1998]",50.951,-2.185
166,hurn,dorset,"[1957, 1958, 1959, 1960, 1961, 1962, 1963, 1964, 1965, 1966, 1967, 1968, 1981, 1982, 1983, 1984, 1985, 1986, 1987, 1988, 1989, 1990, 1991, 1992, 1993, 1994, 1995, 1996, 1997, 1998, 1999, 2000, 2001, 2002, 2003, 2004, 2005, 2006, 2007, 2008, 2009, 2010, 2011, 2012, 2013, 2014, 2015, 2016, 2017, 2018, 2019, 2020]",50.779,-1.836
167,isle-of-portland,dorset,"[1969, 1970, 1971, 1972, 1973, 1974, 1975, 1976, 1977, 1978, 1979, 1980, 1981, 1982, 1983, 1984, 1985, 1986, 1987, 1988, 1989, 1990, 1991, 1992, 1994, 1995, 1996, 1997, 1998, 1999, 2000, 2001, 2002, 2003, 2004, 2005, 2006, 2007, 2008, 2009, 2010, 2011, 2012, 2013, 2014, 2015, 2016, 2017, 2018, 2019, 2020]",50.522,-2.456
168,portland,dorset,"[1993, 1994, 1995, 1996, 1997, 1998, 1999]",50.566,-2.45
169,winfrith,dorset,"[1983, 1984, 1985, 1986, 1987, 1988, 1989, 1990, 1991, 1992, 1993, 1994, 1995, 1996]",50.682,-2.256
170,ballykine-rockvale,down,[1991],54.399,-5.93
171,ballywatticock,down,"[1978, 1979, 1980, 1981, 1982, 1983, 1984, 1985, 1986, 1987, 1988, 1989, 1990, 1991, 1992, 1993, 1994, 1995, 1996, 1997, 1998, 1999, 2000, 2001]",54.572,-5.657
172,bangor-harbour,down,"[1997, 1998, 1999, 2000, 2001, 2002, 2003, 2004, 2005, 2006, 2007]",54.664,-5.669
173,bangor-rathgael,down,[1990],54.639,-5.682
174,belfast-newforge,down,"[1982, 1983, 1984, 1985, 1986, 1987, 1988, 1989, 1990, 1991, 1992, 1993, 1994, 1995, 1996, 1997, 1998, 1999, 2000, 2001]",54.56,-5.941
175,belfast-shaws-bridge,down,[1979],54.548,-5.948
176,bryansford,down,[1995],54.228,-5.937
177,creightons-green,down,[1960],54.637,-5.785
178,helens-bay,down,"[1984, 1991]",54.669,-5.748
179,hillsborough,down,"[1965, 1966, 1967, 1968, 1969, 1970, 1971, 1972, 1973, 1974, 1975, 1976, 1977, 1978, 1979, 1980, 1981, 1982, 1983, 1984, 1985, 1986, 1987, 1988, 1989, 1990, 1991, 1992, 1993, 1994, 1995, 1996, 1997, 1998, 1999, 2000, 2001]",54.453,-6.073
180,hillsborough-met-office,down,"[1980, 1981, 1982, 1983, 1984, 1985, 1986, 1987, 1988, 1989, 1990, 1991, 1992, 1993, 1994, 1995, 1996, 1997, 1998, 1999, 2000, 2001, 2002, 2003]",54.485,-6.098
181,katesbridge,down,"[1997, 1998, 1999, 2000, 2001, 2002, 2003, 2004, 2005, 2006, 2007, 2008, 2009, 2010, 2011, 2012, 2013, 2014, 2015, 2016, 2017, 2018, 2019, 2020]",54.297,-6.111
182,kilkeel,down,"[1957, 1958, 1959, 1968, 1969, 1970, 1971, 1972, 1973, 1974, 1975, 1976, 1977, 1978, 1979, 1980, 1981, 1982, 1983, 1984, 1985, 1986, 1988, 1989, 1990, 1991, 1992, 1993, 1994]",54.058,-5.993
183,killough,down,"[1977, 1978, 1979, 1980, 1981, 1982, 1983, 1984, 1985, 1986, 1987, 1988, 1989, 1990, 1991, 1992, 1993, 1994, 1995, 1996, 1997, 1998, 1999]",54.243,-5.638
184,killowen,down,"[1997, 1998, 1999, 2000, 2001, 2002, 2003, 2004, 2005, 2006, 2007, 2008, 2009, 2010, 2011, 2012, 2013, 2014, 2015, 2016, 2017, 2018, 2019, 2020]",54.077,-6.184
185,lough-cowey,down,"[1978, 1979, 1980, 1981, 1982, 1983, 1984, 1985, 1986, 1987, 1988, 1989, 1990, 1991, 1992, 1993, 1994, 1995, 1996, 1997, 1998, 1999, 2000, 2001]",54.414,-5.539
186,magherally,down,[1992],54.359,-6.196
187,mourne-grange,down,[1983],54.068,-6.042
188,murlough,down,[1973],54.245,-5.832
189,newry-carnbane,down,[2000],54.206,-6.351
190,orlock-head,down,"[1969, 1970, 1971, 1972, 1973, 1974, 1976, 1977, 1978, 1979, 1980, 1981, 1982, 1983, 1984, 1985, 1986, 1987, 1988, 1989, 1990, 1991, 1992, 1993, 1994, 1995, 1996, 1997, 1998, 1999, 2000, 2001, 2002, 2003, 2004, 2005, 2006, 2007, 2008, 2009, 2010, 2011, 2012, 2013, 2014, 2015, 2016, 2017, 2018, 2019, 2020]",54.674,-5.584
191,silent-valley,down,"[1977, 1978, 1979, 1980, 1981, 1982, 1983, 1984, 1985, 1986, 1987, 1988, 1989, 1990, 1991, 1992, 1993, 1994, 1995, 1996, 1997, 1998, 1999, 2000, 2001]",54.127,-6.002
192,stormont-castle,down,"[1962, 1963, 1964, 1965, 1966, 1967, 1968, 1969, 1970, 1971, 1972, 1973]",54.603,-5.83
193,dumfries,dumfriesshire,"[1978, 1979, 1980, 1981, 1982, 1983, 1984, 1985, 1986, 1987, 1988, 1989, 1990, 1991, 1992, 1993, 1994, 1995, 1996, 1997, 1998]",55.056,-3.595
194,dumfries-crichton-royal-no-2,dumfriesshire,"[1998, 1999, 2000, 2001]",55.047,-3.589
195,eskdalemuir,dumfriesshire,"[1957, 1958, 1959, 1960, 1961, 1962, 1963, 1964, 1965, 1966, 1967, 1968, 1969, 1970, 1971, 1972, 1973, 1974, 1975, 1976, 1977, 1978, 1979, 1980, 1981, 1982, 1983, 1984, 1985, 1986, 1987, 1988, 1989, 1990, 1991, 1992, 1993, 1994, 1995, 1996, 1997, 1998, 1999, 2000, 2001, 2002, 2003, 2004, 2005, 2006, 2007, 2008, 2009, 2010, 2011, 2012, 2013, 2014, 2015, 2016, 2017, 2018, 2019, 2020]",55.312,-3.207
196,cumbernauld,dunbartonshire,"[1969, 1970, 1971, 1972, 1973, 1974, 1975, 1976, 1977]",55.961,-3.969
197,gartocharn-portnellan-farm,dunbartonshire,"[1994, 1995, 1996, 1997, 1998, 1999, 2000, 2001]",56.048,-4.567
198,helensburgh-no-2,dunbartonshire,[1981],56.016,-4.724
199,inchterf,dunbartonshire,"[1973, 1974, 1975, 1976, 1977, 1978, 1979, 1980, 1981, 1982, 1983, 1984, 1985, 1986, 1987, 1988, 1989, 1990, 1991, 1992]",55.958,-4.119
200,burnhope,durham,"[1986, 1987, 1988, 1989, 1990, 1991, 1992, 1993, 1994, 1995, 1996, 1997, 1998, 1999, 2000]",54.821,-1.715
201,durham,durham,"[1970, 1971, 1972, 1973, 1974, 1975, 1976, 1977, 1978, 1979, 1980, 1981, 1982, 1983, 1984, 1985, 1986, 1987, 1988, 1989, 1990, 1991, 1992, 1993, 1994, 1995, 1996, 1997, 1998, 1999, 2000, 2001, 2002, 2003, 2004, 2005, 2006, 2007, 2008, 2009]",54.768,-1.586
202,hunt-hall-farm,durham,"[1995, 1996, 1997, 1998, 1999, 2000, 2001]",54.67,-2.229
203,low-etherley,durham,[1994],54.655,-1.74
204,aberporth,dyfed,"[1957, 1958, 1959, 1960, 1961, 1962, 1963, 1964, 1965, 1966, 1967, 1968, 1969, 1970, 1971, 1972, 1973, 1974, 1975, 1976, 1977, 1978, 1979, 1980, 1981, 1982, 1983, 1984, 1985, 1986, 1987, 1988, 1989, 1990, 1991, 1992, 1993, 1994, 1995, 1996, 1997, 1998, 1999, 2000, 2001, 2002, 2003, 2004, 2005, 2006, 2007, 2008, 2009, 2010, 2011, 2012, 2013, 2014, 2015, 2016, 2017, 2018, 2019, 2020]",52.14,-4.571
205,aberystwyth-frongoch,dyfed,[1969],52.423,-4.052
206,brawdy,dyfed,"[1969, 1970, 1974, 1975, 1976, 1977, 1978, 1979, 1980, 1981, 1982, 1983, 1984, 1985, 1986, 1987, 1988, 1989, 1990, 1991, 1992]",51.88,-5.124
207,cwmystwyth,dyfed,"[1994, 1995, 1996, 1997, 1998, 1999]",52.359,-3.803
208,dale-fort,dyfed,"[1994, 1995, 1996, 1997, 1998, 1999, 2000, 2002]",51.703,-5.152
209,gogerddan,dyfed,"[1994, 1995, 1996, 1997, 1998, 1999, 2000, 2001]",52.432,-4.02
210,milford-haven-conservancy-board,dyfed,"[1969, 1970, 1971, 1972, 1973, 1974, 1975, 1976, 1977, 1978, 1979, 1980, 1981, 1982, 1983, 1984, 1985, 1986, 1987, 1988, 1989, 1990, 1991, 1992, 1993, 1994, 1995, 1996, 1997, 1998, 1999, 2000, 2001, 2002, 2003, 2004, 2005, 2006, 2007, 2008, 2009, 2010, 2011, 2012, 2013, 2014, 2015, 2016, 2017, 2018, 2019, 2020]",51.709,-5.053
211,orielton,dyfed,"[1994, 1995, 1996, 1997, 1998, 2000, 2001]",51.653,-4.96
212,pembrey-sands,dyfed,"[1993, 1994, 1995, 1996, 1997, 1998, 1999, 2000, 2001, 2002, 2003, 2004, 2005, 2006, 2007, 2008, 2009, 2010, 2011, 2012, 2013, 2014, 2015, 2016, 2017, 2018, 2019, 2020]",51.714,-4.367
213,trawsgoed,dyfed,"[1992, 1993, 1994, 1995, 1996, 1997, 1998, 1999, 2000, 2001, 2002, 2003, 2004, 2005, 2006, 2007, 2008, 2009, 2010, 2011, 2012, 2013, 2014, 2015, 2016, 2017, 2018, 2019, 2020]",52.344,-3.948
214,whitechurch,dyfed,[1995],51.989,-4.679
215,dunbar,east-lothian,"[1967, 1968, 1969, 1970, 1971, 1978, 1979, 1980, 1981, 1982, 1983, 1984, 1985, 1986, 1987, 1988, 1989, 1990, 1991, 1992, 1993, 1994, 1995, 1996, 1997, 1998, 1999, 2000, 2001]",56.004,-2.528
216,haddington,east-lothian,"[1989, 1998, 1999]",55.96,-2.751
217,nunraw-abbey,east-lothian,"[1979, 1980, 1981, 1982, 1983, 1984, 1985, 1986, 1987, 1988, 1989, 1990, 1991, 1992, 1993, 1994, 1995, 1996, 1997, 1998, 1999, 2000, 2001]",55.921,-2.652
218,bexhill,east-sussex,"[1994, 1995, 1996, 1997, 1998, 1999, 2000]",50.838,0.464
219,brede,east-sussex,"[1999, 2000]",50.939,0.593
220,brighton-marina,east-sussex,"[1973, 1974, 1975, 1976, 1977, 1978]",50.814,-0.108
221,eastbourne,east-sussex,"[1994, 1995, 1996, 1997, 1998, 1999, 2000, 2001]",50.759,0.283
222,hastings,east-sussex,"[1994, 1997, 1998, 1999, 2000, 2001]",50.856,0.57
223,herstmonceux,east-sussex,"[1983, 1984, 1985, 1986, 1987, 1988, 1989, 1990, 1991, 1992]",50.865,0.336
224,herstmonceux-west-end,east-sussex,"[1993, 1994, 1995, 1996, 1997, 1998, 1999, 2000, 2001, 2002, 2003, 2004, 2005, 2006, 2007, 2008, 2009, 2010, 2011, 2012, 2013, 2014, 2015, 2016, 2017, 2018, 2019, 2020]",50.891,0.317
225,newhaven,east-sussex,"[1997, 1998, 1999, 2000]",50.782,0.057
226,plumpton,east-sussex,"[1969, 1970, 1971, 1972, 1973, 1974, 1975, 1976, 1977, 1978, 1979, 1980, 1981, 1982, 1983, 1984, 1985, 1986, 1987, 1988, 1989, 1990, 1991, 1992, 1993, 1994, 1995, 1996, 1997, 1998, 1999, 2000, 2001]",50.906,-0.071
227,andrewsfield,essex,"[1997, 1998, 1999, 2000, 2001, 2002, 2003, 2004, 2005, 2006, 2007, 2008, 2009, 2010, 2011, 2012, 2013, 2014, 2015, 2016, 2017, 2018, 2019, 2020]",51.896,0.451
228,coryton,essex,"[1969, 1970, 1971]",51.513,0.515
229,high-beach,essex,"[1997, 1998]",51.664,0.041
230,shoeburyness,essex,"[1957, 1958, 1959, 1960, 1961, 1962, 1963, 1964, 1965, 1966, 1967, 1968, 1969, 1970, 1971, 1972, 1973, 1974, 1975, 1976, 1977, 1978, 1979, 1980, 1981]",51.537,0.807
231,shoeburyness-landwick,essex,"[1981, 1982, 1983, 1984, 1985, 1986, 1987, 1988, 1989, 1990, 1991, 1992, 1993, 1994, 1995, 1996, 1997, 1998, 1999, 2000, 2001, 2002, 2003, 2004, 2005, 2006, 2007, 2008, 2009, 2010, 2011, 2012, 2013, 2014, 2015, 2016, 2017, 2018, 2019, 2020]",51.555,0.827
232,southend-southchurch-park,essex,[1998],51.532,0.738
233,stansted,essex,"[1959, 1960, 1961, 1962, 1963, 1964, 1965, 1966, 1967, 1968, 1969, 1970, 1971, 1972, 1973, 1974, 1975, 1976, 1977, 1978, 1979, 1980, 1981, 1982, 1983, 1984, 1985, 1986, 1987, 1988, 1989, 1990, 1991, 1992, 1993, 1994, 1995, 1996, 1997]",51.881,0.223
234,thames-tower,essex,"[1997, 1998, 1999]",51.774,1.111
235,walton-on-the-naze,essex,"[1990, 1991, 1992, 1993, 1994, 1995, 1996, 1997, 1998, 1999, 2000, 2001, 2002, 2003, 2004, 2005, 2006, 2007, 2008, 2009, 2010, 2011, 2012, 2013, 2014, 2015]",51.855,1.28
236,writtle,essex,"[1994, 1995, 1996, 1997, 1998, 1999, 2000, 2001]",51.734,0.429
237,castle-archdale-forest,fermanagh,"[1966, 1967, 1968, 1969, 1970, 1971, 1972, 1973, 1974, 1975, 1976, 1977, 1978, 1979, 1980, 1981, 1982, 1983, 1984, 1985, 1986, 1987, 1988, 1989, 1990, 1991, 1992, 1993, 1994]",54.482,-7.709
238,derrylin,fermanagh,"[2004, 2005, 2006, 2007]",54.151,-7.575
239,ely-lodge,fermanagh,"[1959, 1960, 1961]",54.408,-7.707
240,st-angelo,fermanagh,"[1992, 1993, 1994, 1995, 1996, 1997, 1998, 1999, 2000, 2001, 2002, 2003, 2004, 2005, 2006, 2007, 2008, 2009, 2010, 2011, 2012, 2013]",54.396,-7.645
241,thomastown,fermanagh,"[2012, 2013, 2014, 2015, 2016, 2017, 2018, 2019, 2020]",54.33,-7.595
242,belliston,fife,"[1979, 1980, 1981, 1982, 1983, 1984, 1985, 1986, 1987, 1988, 1989, 1990, 1991, 1992, 1993, 1994, 1995, 1996, 1997, 1998, 1999, 2000, 2001]",56.239,-2.796
243,fife-ness,fife,"[1997, 1998, 1999, 2000]",56.279,-2.586
244,leuchars,fife,"[1957, 1958, 1959, 1960, 1961, 1962, 1963, 1964, 1965, 1966, 1967, 1968, 1969, 1970, 1971, 1972, 1973, 1974, 1975, 1976, 1977, 1978, 1979, 1980, 1981, 1982, 1983, 1984, 1985, 1986, 1987, 1988, 1989, 1990, 1991, 1992, 1993, 1994, 1995, 1996, 1997, 1998, 1999, 2000, 2001, 2002, 2003, 2004, 2005, 2006, 2007, 2008, 2009, 2010, 2011, 2012, 2013, 2014, 2015, 2016, 2017, 2018, 2019, 2020]",56.377,-2.862
245,cirencester,gloucestershire,"[1994, 1995, 1996, 1997, 1998, 1999, 2000, 2001]",51.709,-1.996
246,fairford-airfield,gloucestershire,"[1970, 1971, 1972, 1973, 1974, 1975, 1976, 1977]",51.69,-1.773
247,innsworth,gloucestershire,"[1977, 1978, 1979, 1980, 1981]",51.891,-2.196
248,little-rissington,gloucestershire,"[1974, 1975, 1976, 1991, 1992, 1993, 1994, 1995, 1996, 1997, 1998, 1999, 2000, 2001, 2002, 2003, 2004, 2005, 2006, 2007, 2008, 2009, 2010, 2011, 2012, 2013, 2014, 2015, 2016, 2017, 2018, 2019, 2020]",51.861,-1.693
249,slimbridge,gloucestershire,[1996],51.74,-2.404
250,westonbirt,gloucestershire,"[1994, 1995, 1996, 1997, 1999]",51.607,-2.221
251,blackwall,greater-london,"[1976, 1977, 1978]",51.508,0.007
252,greenwich-observatory,greater-london,[1998],51.478,-0.003
253,hampton-w-wks,greater-london,"[1969, 1970, 1971, 1972, 1973, 1974, 1975, 1976]",51.412,-0.378
254,heathrow,greater-london,"[1949, 1950, 1951, 1952, 1953, 1954, 1955, 1956, 1957, 1958, 1959, 1960, 1961, 1962, 1963, 1964, 1965, 1966, 1967, 1968, 1969, 1970, 1971, 1972, 1973, 1974, 1975, 1976, 1977, 1978, 1979, 1980, 1981, 1982, 1983, 1984, 1985, 1986, 1987, 1988, 1989, 1990, 1991, 1992, 1993, 1994, 1995, 1996, 1997, 1998, 1999, 2000, 2001, 2002, 2003, 2004, 2005, 2006, 2007, 2008, 2009, 2010, 2011, 2012, 2013, 2014, 2015, 2016, 2017, 2018, 2019, 2020]",51.479,-0.451
255,kenley-airfield,greater-london,"[1991, 1992, 1993, 1994, 1995, 1996, 1997, 1998, 1999, 2000, 2001, 2002, 2003, 2004, 2005, 2006, 2007, 2008, 2009, 2010, 2011, 2012, 2013, 2014, 2015, 2016, 2017, 2018, 2019, 2020]",51.304,-0.092
256,kew,greater-london,"[1957, 1958, 1959, 1960, 1961, 1962, 1963, 1964, 1965, 1966, 1967, 1968, 1969, 1970, 1971, 1972, 1973, 1974, 1975, 1976, 1977, 1978, 1979, 1980, 1981]",51.468,-0.316
257,kew-gardens,greater-london,"[1981, 1982, 1983, 1984, 1985, 1986, 1987, 1988, 2007, 2008, 2009, 2010, 2011, 2012, 2013, 2014, 2015, 2016, 2017, 2018, 2019, 2020]",51.482,-0.294
258,london-weather-centre,greater-london,"[1969, 1970, 1971, 1972, 1973, 1974, 1975, 1976, 1977, 1978, 1979, 1980, 1981, 1982, 1983, 1984, 1985, 1986, 1987, 1988, 1989, 1990, 1991, 1992, 1993, 1994, 1995, 1996, 1997, 1998, 1999, 2000, 2001]",51.522,-0.112
259,northolt,greater-london,"[1979, 1980, 1981, 1982, 1983, 1984, 1985, 1986, 1987, 1988, 1989, 1990, 1991, 1992, 1993, 1994, 1995, 1996, 1997, 1998, 1999, 2000, 2001, 2002, 2003, 2004, 2005, 2006, 2007, 2008, 2009, 2010, 2011, 2012, 2013, 2014, 2015, 2016, 2017, 2018, 2019, 2020]",51.549,-0.417
260,manchester-weather-centre,greater-manchester,"[1961, 1962, 1963, 1964, 1965, 1966, 1967, 1968, 1970, 1971, 1972, 1973, 1974, 1975, 1976, 1977, 1978, 1979, 1980, 1981, 1982, 1983, 1984, 1985, 1986]",53.483,-2.244
261,ringway,greater-manchester,"[1949, 1950, 1951, 1952, 1953, 1954, 1955, 1956, 1957, 1958, 1959, 1960, 1961, 1962, 1963, 1964, 1965, 1966, 1967, 1968, 1969, 1970, 1971, 1972, 1973, 1974, 1975, 1976, 1977, 1978, 1979, 1980, 1981, 1982, 1983, 1984, 1985, 1986, 1987, 1988, 1989, 1990, 1991, 1992, 1993, 1994, 1995, 1996, 1997, 1998, 1999, 2000, 2001, 2002, 2003, 2004]",53.356,-2.281
262,rochdale,greater-manchester,"[2007, 2008, 2009, 2010, 2011, 2012, 2013, 2014, 2015, 2016, 2017, 2018, 2019, 2020]",53.609,-2.179
263,tredegar-bryn-bach-park,gwent,"[1994, 1995]",51.785,-3.276
264,tredegar-bryn-bach-park-no-2,gwent,"[1995, 1996, 1997, 1998, 1999]",51.784,-3.268
265,aber-no-2,gwynedd,"[1994, 1995, 1996, 1997, 1998, 1999, 2000, 2001]",53.238,-4.015
266,aberdaron,gwynedd,"[1993, 1994, 1995, 1996, 1997, 1998, 1999, 2000, 2001, 2002, 2003, 2004, 2005, 2006, 2007, 2008, 2009, 2010, 2011, 2012, 2013, 2014, 2015, 2016, 2017, 2018, 2019, 2020]",52.789,-4.741
267,arthog-no-2,gwynedd,[1994],52.718,-4.015
268,bala,gwynedd,"[1975, 1976, 1977, 1978, 1979, 1980, 1981, 1982, 1983, 1984, 1985, 1986, 1987, 1988, 1989, 1990, 1991, 1992, 1993, 1994, 1995, 1996, 1997, 1998, 1999, 2000, 2001, 2002, 2003, 2004, 2005, 2006, 2007, 2008, 2009, 2010, 2011, 2012, 2013, 2014, 2015, 2016, 2017, 2018, 2019, 2020]",52.908,-3.584
269,capel-curig-no-3,gwynedd,"[1993, 1994, 1995, 1996, 1997, 1998, 1999, 2000, 2001, 2002, 2003, 2004, 2005, 2006, 2007, 2008, 2009, 2010, 2011, 2012, 2013, 2014, 2015, 2016, 2017, 2018, 2019, 2020]",53.094,-3.941
270,llanbedr,gwynedd,"[1998, 1999, 2000, 2001, 2002, 2003, 2004]",52.803,-4.124
271,pen-y-ffridd,gwynedd,"[1994, 1995, 1996, 1997]",53.21,-4.155
272,snowdon-summit,gwynedd,"[1997, 1998, 1999, 2000]",53.068,-4.077
273,trawsfynydd,gwynedd,"[1970, 1971, 1972, 1973, 1974, 1975, 1976, 1977, 1978, 1979, 1980, 1981, 1982, 1983, 1984, 1985, 1986, 1987, 1988, 1989, 1990, 1991, 1992, 1993, 1994, 1995, 1996, 1997, 1998]",52.932,-3.943
274,valley,gwynedd,"[1957, 1958, 1959, 1960, 1961, 1962, 1963, 1964, 1965, 1966, 1967, 1968, 1969, 1970, 1971, 1972, 1973, 1974, 1975, 1976, 1977, 1978, 1979, 1980, 1981, 1982, 1983, 1984, 1985, 1986, 1987, 1988, 1989, 1990, 1991, 1992, 1993, 1994, 1995, 1996, 1997, 1998, 1999, 2000, 2001, 2002, 2003, 2004, 2005, 2006, 2007, 2008, 2009, 2010, 2011, 2012, 2013, 2014, 2015, 2016, 2017, 2018, 2019, 2020]",53.253,-4.536
275,alice-holt-lodge,hampshire,"[1994, 1995, 1996, 1997, 1998, 1999, 2000, 2001]",51.178,-0.85
276,butser-windmill-hill,hampshire,"[1990, 1991, 1992, 1993, 1994, 1995, 1996, 1997, 1998, 1999, 2000, 2001]",50.944,-0.976
277,calshot,hampshire,"[1969, 1970, 1971, 1972, 1973, 1974, 1975, 1976, 1977, 1978, 1979, 1980, 1981, 1982, 1983, 1984, 1985]",50.82,-1.307
278,everton,hampshire,"[1994, 1995, 1996, 1997, 1998, 1999, 2000, 2001]",50.742,-1.575
279,hayling-island,hampshire,[1996],50.785,-0.986
280,ibsley,hampshire,[1995],50.884,-1.772
281,kingsclere-strattons-farm,hampshire,[1991],51.344,-1.265
282,long-sutton,hampshire,[1997],51.213,-0.93
283,martyr-worthy,hampshire,"[1994, 1995]",51.103,-1.263
284,middle-wallop,hampshire,"[1973, 1974, 1975, 1976, 1977, 1978, 1979, 1980, 1981, 1982, 1983, 1984, 1985, 1986, 1987, 1988, 1989, 1990, 1991, 1992, 1993, 1994, 1995, 1996, 1997, 1998, 1999, 2000, 2001, 2002, 2003, 2004, 2005, 2006, 2007, 2008, 2009, 2010, 2011, 2012, 2013, 2014, 2015, 2016, 2017, 2018, 2019, 2020]",51.15,-1.57
285,odiham,hampshire,"[1991, 1992, 1993, 1994, 1995, 1996, 1997, 1998, 1999, 2000, 2001, 2002, 2003, 2004, 2005, 2006, 2007, 2008, 2009, 2010, 2011, 2012, 2013, 2014, 2015, 2016, 2017, 2018, 2019, 2020]",51.239,-0.945
286,otterbourne-w-wks,hampshire,"[1994, 1995, 1996, 1997, 1998, 1999, 2000, 2001]",51.009,-1.335
287,solent,hampshire,"[1973, 1974, 1975, 1976, 1977, 1978, 1979, 1980, 1981, 1982, 1983, 1984, 1985, 1986, 1987, 1988, 1989, 1990, 1991, 1992, 1993, 1994, 1995, 1996, 1997, 1998, 1999, 2000, 2001, 2002, 2003, 2004, 2005, 2006, 2007, 2008, 2009, 2010, 2011, 2012, 2013, 2014, 2015]",50.808,-1.211
288,south-farnborough,hampshire,"[1957, 1958, 1959, 1960, 1961, 1962, 1963, 1964, 1965, 1966, 1967, 1968, 1969, 1970, 1971, 1972, 1973, 1974, 1975, 1976, 1977, 1978, 1979, 1980, 1981, 1982, 1983, 1984, 1985, 1986, 1987, 1988, 1989, 1990, 1991, 1992, 1993, 1994, 1995, 1996, 1997, 1998, 1999, 2000, 2001, 2002, 2003, 2004, 2005, 2006, 2007, 2008, 2009, 2010, 2011, 2012, 2013, 2014, 2015, 2016, 2017, 2018, 2019, 2020]",51.28,-0.773
289,southampton,hampshire,"[1992, 1993, 1994, 1995, 1996, 1997, 1998, 1999, 2000, 2001]",50.901,-1.404
290,astwood-bank,hereford-and-worcester,[1994],52.248,-1.935
291,bromyard-batchley-farm,hereford-and-worcester,"[1994, 1995, 1996, 1997, 1998, 1999, 2000, 2001]",52.214,-2.587
292,great-malvern,hereford-and-worcester,"[1997, 1998, 1999, 2000, 2001, 2002, 2003, 2004, 2005, 2006, 2007, 2008]",52.121,-2.306
293,hereford-credenhill,hereford-and-worcester,"[1999, 2000, 2001, 2002, 2003, 2004, 2005, 2006, 2007, 2008, 2009, 2010, 2011, 2012, 2013, 2014, 2015, 2016, 2017, 2018, 2019, 2020]",52.08,-2.802
294,pershore,hereford-and-worcester,"[1957, 1958, 1959, 1960, 1961, 1962, 1963, 1964, 1965, 1966, 1967, 1968, 1969, 1970, 1971, 1972, 1973, 1974, 1975, 1976, 1977, 1991, 1992, 1993, 1994, 1995, 1996, 1997, 1998, 1999, 2000, 2001, 2002, 2003, 2004, 2005, 2006, 2007, 2008, 2009, 2010, 2011, 2012, 2013, 2014, 2015, 2016, 2017, 2018, 2019, 2020]",52.148,-2.041
295,pershore-college,hereford-and-worcester,"[1994, 1995, 1996, 1997]",52.1,-2.06
296,preston-wynne,hereford-and-worcester,"[1994, 1995, 1996, 1997, 1998, 1999, 2000, 2001, 2002, 2003, 2004, 2005, 2006, 2007, 2008]",52.125,-2.638
297,ross-on-wye,hereford-and-worcester,"[1970, 1971, 1972, 1973, 1974, 1989, 1990, 1991, 1995, 2018, 2019, 2020]",51.911,-2.586
298,shobdon-airfield,hereford-and-worcester,"[1992, 1993, 1994, 1995, 1996, 1997, 1998, 1999, 2000, 2001, 2002, 2003, 2004, 2005, 2006, 2007, 2008, 2009, 2010, 2011, 2012, 2013, 2014, 2015, 2016, 2017, 2018, 2019, 2020]",52.243,-2.886
299,worcester-cornmeadow,hereford-and-worcester,"[1983, 1984, 1985, 1986]",52.224,-2.225
300,garston-building-research,hertfordshire,"[1969, 1970, 1971, 1972, 1973, 1974, 1975, 1976, 1977, 1978, 1979, 1980, 1981, 1982]",51.702,-0.376
301,rothamsted,hertfordshire,"[1969, 1970, 1971, 1972, 1973, 1974, 1975, 1976, 1994, 1995, 1996, 1997, 1998, 1999, 2000, 2001]",51.807,-0.36
302,bridlington-mrsc,humberside,"[1990, 1991, 1992, 1993, 1994, 1995, 1996, 1997, 1998, 1999, 2000, 2001, 2002, 2003, 2004, 2005, 2006, 2007, 2008, 2009, 2010, 2011, 2012, 2013, 2014, 2015, 2016, 2017, 2018, 2019, 2020]",54.094,-0.176
303,cleethorpes-haverstoe-park,humberside,"[2003, 2004]",53.55,-0.03
304,cowden,humberside,"[1995, 1996, 1997, 1998]",53.844,-0.103
305,hull,humberside,[2008],53.756,-0.358
306,hull-east-park,humberside,[2012],53.766,-0.298
307,kilnsea,humberside,"[1957, 1958, 1959, 1960, 1961, 1962, 1963, 1964, 1965, 1966, 1967, 1968]",53.622,0.141
308,leconfield,humberside,"[1959, 1960, 1961, 1962, 1963, 1964, 1965, 1966, 1967, 1968, 1992, 1993, 1994, 1995, 1996, 1997, 1998, 1999, 2000, 2001, 2002, 2003, 2004, 2005, 2006, 2007, 2008, 2009, 2010, 2011, 2012, 2013, 2014, 2015, 2016, 2017, 2018, 2019, 2020]",53.875,-0.442
309,spurn-point,humberside,"[1977, 1978, 1979, 1980, 1981, 1982, 1983, 1984, 1985, 1986, 1987, 1988, 1989, 1990, 1991, 1992, 1993, 1994]",53.575,0.111
310,aonach-mor,inverness-shire,"[1992, 1993, 1994, 1995, 1996, 1997, 1998, 1999, 2000, 2001, 2002, 2003, 2004, 2005, 2006, 2007, 2008, 2009, 2010, 2011, 2012, 2013, 2014, 2015, 2016, 2017, 2018, 2019, 2020]",56.822,-4.969
311,aviemore,inverness-shire,"[1983, 1984, 1985, 1986, 1987, 1988, 1989, 1990, 1991, 1992, 1993, 1994, 1995, 1996, 1997, 1998, 1999, 2000, 2001, 2002, 2003, 2004, 2005, 2006, 2007, 2008, 2009, 2010, 2011, 2012, 2013, 2014, 2015, 2016, 2017, 2018, 2019, 2020]",57.206,-3.828
312,aviemore-trial,inverness-shire,"[2000, 2001]",57.206,-3.828
313,cairngorm,inverness-shire,"[1969, 1970, 1971, 1972, 1973, 1974, 1975, 1976, 1977, 1978, 1979, 1980, 1981, 1982, 1983, 1984, 1985, 1986, 1987, 1988, 1989, 1990, 1991, 1992, 1993, 1994, 1995, 1996, 1997, 1998, 1999, 2000, 2001]",57.124,-3.645
314,cairngorm-summit,inverness-shire,"[1992, 1993, 1994, 1995, 1996, 1997, 1998, 1999, 2000, 2001, 2002, 2003, 2004, 2005, 2006, 2007, 2008, 2009, 2010, 2011, 2012, 2013, 2014, 2015, 2016, 2017, 2018, 2019, 2020]",57.116,-3.643
315,corpach,inverness-shire,"[1969, 1970, 1971, 1972, 1973, 1974, 1976, 1977, 1978, 1979, 1980]",56.839,-5.149
316,dalcross,inverness-shire,"[1969, 1970, 1971, 1972, 1973, 1974, 1975, 1976, 1977, 1978, 1979, 1980, 1981, 1982, 1983, 1984, 1985, 1986, 1987, 1988, 1989, 1990, 1991, 1992, 1993, 1994]",57.542,-4.062
317,dalwhinnie-no-2,inverness-shire,"[1978, 1979, 1980, 1981, 1982, 1983, 1984, 1985, 1986, 1987, 1988, 1989, 1990, 1991, 1992, 1993, 1994, 1995, 1996, 1997, 1998, 1999, 2000, 2001]",56.94,-4.238
318,fort-augustus-no-2,inverness-shire,"[1969, 1970, 1971, 1972, 1973, 1974, 1975, 1976, 1977, 1978, 1979, 1980, 1981, 1982, 1983, 1984, 1985, 1986, 1987, 1988, 1989]",57.138,-4.718
319,inverailort,inverness-shire,"[1987, 1988, 1989, 1990, 1997, 1998]",56.872,-5.67
320,kiltarlity,inverness-shire,[1999],57.427,-4.497
321,lentran,inverness-shire,"[1985, 1986, 1987, 1988, 1989, 1990, 1993, 1994]",57.459,-4.373
322,onich,inverness-shire,[1992],56.72,-5.224
323,rhum-kinloch,inverness-shire,[1964],57.014,-6.282
324,skye-prabost,inverness-shire,"[1959, 1960, 1961, 1962, 1963, 1964, 1965, 1966, 1967, 1968, 1969, 1970, 1971, 1978, 1979, 1980, 1981, 1982, 1983, 1984, 1985, 1986, 1987, 1988, 1989]",57.467,-6.305
325,tulloch-bridge,inverness-shire,"[1991, 1992, 1993, 1994, 1995, 1996, 1997, 1998, 1999, 2000, 2001, 2002, 2003, 2004, 2005, 2006, 2007, 2008, 2009, 2010, 2011, 2012, 2013, 2014, 2015, 2016, 2017, 2018, 2019, 2020]",56.867,-4.708
326,mona,isle-of-anglesey,"[2009, 2010, 2011, 2012, 2013, 2014, 2015, 2016, 2017, 2018, 2019, 2020]",53.261,-4.376
327,wight-needles-old-battery,isle-of-wight,"[1996, 1997, 1998, 1999, 2000, 2001, 2002, 2003, 2004, 2005, 2006, 2007, 2008, 2009, 2010, 2011, 2012, 2013, 2014, 2015, 2016, 2017, 2018, 2019, 2020]",50.663,-1.583
328,wight-st-catherines-point,isle-of-wight,"[1997, 1998, 1999, 2000, 2001, 2002, 2003, 2004, 2005, 2006, 2007, 2008, 2009, 2010, 2011, 2012, 2013, 2014, 2015, 2016, 2017, 2018, 2019, 2020]",50.576,-1.297
329,wight-ventnor-park,isle-of-wight,[1995],50.593,-1.213
330,scilly-st-marys,isles-of-scilly,"[1957, 1958, 1959, 1960, 1961, 1962, 1963, 1964, 1965, 1966, 1967, 1968, 1969, 1970, 1971, 1972, 1973, 1974, 1975, 1976, 1977, 1978, 1979, 1980, 1981]",49.929,-6.303
331,scilly-st-marys-airport,isles-of-scilly,"[1991, 1992, 1993, 1994, 1995, 1996, 1997, 1998, 1999, 2000, 2001, 2002, 2003, 2004, 2005, 2006, 2007, 2008, 2009, 2010, 2011, 2012, 2013, 2014, 2015, 2016, 2017, 2018, 2019, 2020]",49.915,-6.296
332,deal,kent,"[1958, 1959, 1960, 1962]",51.232,1.403
333,dover,kent,"[1969, 1970, 1971]",51.121,1.314
334,dover-no-2,kent,"[1976, 1977, 1978, 1979, 1980, 1981, 1982, 1983, 1984, 1985]",51.121,1.342
335,dungeness,kent,"[1957, 1958, 1959, 1960, 1961, 1962, 1963, 1964, 1965, 1966, 1967, 1968, 1970, 1971, 1972, 1973, 1974, 1975, 1976, 1977, 1978, 1979, 1980, 1981, 1982, 1983, 1984, 1985, 1986]",50.913,0.972
336,east-malling,kent,"[1978, 1979, 1980, 1981, 1982, 1983, 1984, 1985, 1986, 1987, 1988, 1989, 1990, 1991, 1992, 1993, 1994, 1995, 1996, 1997, 1998, 1999, 2000, 2001, 2002, 2003, 2004, 2005, 2006, 2007, 2008, 2009, 2010, 2011, 2012, 2013, 2014, 2015, 2016, 2017, 2018, 2019, 2020]",51.288,0.448
337,faversham,kent,"[1998, 1999, 2000, 2001]",51.297,0.878
338,folkestone-tml,kent,"[1989, 1990, 1991, 1992, 1993, 1994, 1995, 1996]",51.09,1.119
339,gravesend-broadness,kent,"[1995, 1996, 1997, 1998, 1999, 2000, 2001, 2002, 2003, 2004, 2005, 2006, 2007, 2008, 2009, 2010, 2011, 2012, 2013, 2014, 2015, 2016, 2017, 2018]",51.464,0.311
340,gravesend-no-2,kent,"[1980, 1981, 1982, 1983, 1984, 1985, 1986, 1987, 1988, 1989, 1990, 1991, 1992, 1993, 1994, 1995]",51.445,0.374
341,hadlow-college,kent,[1994],51.223,0.33
342,herne-bay-no-2,kent,"[1994, 1995, 1996, 1997, 2000, 2001, 2002, 2003, 2004, 2005, 2006]",51.358,1.135
343,isle-of-grain,kent,"[1969, 1970, 1971, 1972, 1973, 1974, 1975, 1976, 1977, 1978, 1979, 1980, 1981, 1982, 1983, 1984, 1985]",51.442,0.703
344,langdon-bay,kent,"[1985, 1986, 1987, 1988, 1989, 1990, 1991, 1992, 1993, 1994, 1995, 1996, 1997, 1998, 1999, 2000, 2001, 2002, 2003, 2004, 2005, 2006, 2007, 2008, 2009, 2010, 2011, 2012, 2013, 2014, 2015, 2016, 2017, 2018, 2019, 2020]",51.134,1.343
345,lydd-ashford-airport,kent,"[1993, 1994, 1995, 1996, 1997]",50.959,0.94
346,lydd-ranges,kent,"[1986, 1987, 1988, 1989, 1990, 1991, 1992]",50.937,0.889
347,manston,kent,"[1961, 1962, 1963, 1964, 1965, 1966, 1967, 1968, 1969, 1970, 1971, 1972, 1973, 1974, 1975, 1976, 1977, 1978, 1979, 1980, 1981, 1982, 1983, 1984, 1985, 1986, 1987, 1988, 1989, 1990, 1991, 1992, 1993, 1994, 1995, 1996, 1997, 1998, 1999, 2000, 2001, 2002, 2003, 2004, 2005, 2006, 2007, 2008, 2009, 2010, 2011, 2012, 2013, 2014, 2015, 2016, 2017, 2018, 2019, 2020]",51.347,1.335
348,manston-trial,kent,[2000],51.352,1.348
349,sheerness,kent,"[1989, 1990, 1991, 1992, 1997, 1998, 1999, 2000, 2001, 2002, 2003, 2004, 2005, 2006, 2007, 2008]",51.447,0.744
350,wye,kent,"[1994, 1995, 1996, 1997, 1998, 1999, 2000, 2001]",51.185,0.945
351,durris,kincardineshire,"[1995, 1996, 1997, 1998]",57.032,-2.404
352,fettercairn-glensaugh-no-2,kincardineshire,"[1996, 1997, 1998, 1999, 2000, 2001]",56.893,-2.542
353,inverbervie-no-2,kincardineshire,"[1992, 1993, 1994, 1995, 1996, 1997, 1998, 1999, 2000, 2001, 2002, 2003, 2004, 2005, 2006, 2007, 2008, 2009, 2010, 2011, 2012, 2013, 2014, 2015, 2016, 2017, 2018, 2019, 2020]",56.852,-2.266
354,kinross,kinross-shire,"[1995, 1996, 1997, 1998, 1999, 2000, 2001]",56.214,-3.413
355,bargrennan,kirkcudbrightshire,[1992],55.077,-4.569
356,clatteringshaws-no-2,kirkcudbrightshire,"[1965, 1966, 1967, 1968, 1969, 1970, 1971, 1978, 1979, 1980, 1981, 1982, 1983, 1984, 1985, 1986, 1987, 1988, 1989, 1990, 1991, 1992, 1993, 1994, 1995, 1996, 1997, 1998, 1999, 2000, 2001, 2003]",55.075,-4.266
357,dumfries-drungans,kirkcudbrightshire,"[1972, 1973, 1974, 1975, 1976, 1977, 1978, 1979, 1980, 1981, 1982, 1983, 1984, 1985, 1986, 1987, 1988, 1989, 1990, 1991, 1992, 1993, 1994, 1995, 1996, 1997, 1998, 1999, 2000, 2001, 2002, 2003, 2004]",55.054,-3.645
358,dundrennan,kirkcudbrightshire,"[1991, 1992, 1993, 1994, 1995, 1996, 1997, 1998, 1999, 2000, 2001, 2002, 2003, 2004, 2005, 2006, 2007, 2008, 2009, 2010, 2011, 2012, 2013, 2014, 2015, 2016, 2017, 2018, 2019, 2020]",54.803,-4.008
359,glenlochar-barrage,kirkcudbrightshire,[1992],54.96,-3.982
360,palnure-no-2,kirkcudbrightshire,"[1979, 1980, 1981, 1982]",54.952,-4.419
361,abington,lanarkshire,"[1982, 1983, 1987, 1988, 1989, 1990, 1991, 1994]",55.489,-3.692
362,carnwath,lanarkshire,"[1970, 1971, 1972, 1973, 1974, 1975, 1976, 1977, 1978, 1979, 1980, 1981, 1982, 1983, 1984, 1985, 1986]",55.7,-3.634
363,coatbridge,lanarkshire,[1981],55.855,-4.056
364,drumalbin,lanarkshire,"[1991, 1992, 1993, 1994, 1995, 1996, 1997, 1998, 1999, 2000, 2001, 2002, 2003, 2004, 2005, 2006, 2007, 2008, 2009, 2010, 2011, 2012, 2013, 2014, 2015, 2016, 2017, 2018, 2019, 2020]",55.627,-3.736
365,drumclog,lanarkshire,[1994],55.627,-4.201
366,east-kilbride-no-2,lanarkshire,"[1971, 1972, 1973, 1974, 1975, 1976, 1977, 1978, 1979, 1980, 1981, 1982, 1983, 1999, 2000, 2001, 2002, 2003, 2004, 2005]",55.755,-4.172
367,lowther-hill,lanarkshire,"[1974, 1975, 1976, 1977, 1978, 1979, 1980, 1981, 1982, 1983, 1984, 1985, 1986, 1987, 1988, 1989, 1990]",55.378,-3.753
368,salsburgh,lanarkshire,"[1980, 1981, 1982, 1983, 1984, 1985, 1986, 1987, 1988, 1989, 1990, 1991, 1992, 1993, 1994, 1995, 1996, 1997, 1998, 1999, 2000, 2001, 2002, 2003, 2004, 2005, 2006, 2007, 2008, 2009, 2010, 2011, 2012, 2013, 2014, 2015, 2016, 2017, 2018, 2019, 2020]",55.861,-3.875
369,aughton,lancashire,"[1978, 1979, 1980, 1981, 1982, 1983, 1984, 1985, 1986, 1987, 1988, 1989, 1990, 1991, 1992, 1993, 1994, 1995, 1996]",53.55,-2.916
370,blackpool-squires-gate,lancashire,"[1957, 1958, 1959, 1960, 1961, 1962, 1963, 1964, 1965, 1966, 1967, 1968, 1969, 1970, 1971, 1972, 1973, 1974, 1975, 1976, 1977, 1978, 1979, 1980, 1981, 1982, 1983, 1984, 1985, 1986, 1987, 1988, 1989, 1990, 1991, 1992, 1993, 1994, 1995, 1996, 1997, 1998, 1999, 2000, 2001, 2002, 2003, 2004, 2005, 2006, 2007, 2008, 2009, 2010, 2011, 2012, 2013, 2014, 2015, 2016, 2017, 2018, 2019, 2020]",53.775,-3.038
371,fleetwood,lancashire,"[1970, 1971, 1972, 1973, 1974, 1975, 1976, 1977, 1978, 1979, 1980, 1981, 1982, 1983, 1984, 1985, 1986, 1987, 1988, 1989, 1990, 1991, 1992]",53.926,-3.017
372,hazelrigg,lancashire,"[1994, 1995, 1996, 1997, 1998, 1999, 2000, 2001]",54.014,-2.775
373,morecambe-no-2,lancashire,[1994],54.076,-2.86
374,myerscough,lancashire,[1990],53.854,-2.767
375,preston-moor-park,lancashire,"[1994, 1995, 1996, 1997, 1998, 1999, 2000, 2001]",53.774,-2.705
376,slaidburn,lancashire,"[1994, 1995, 1996]",53.988,-2.435
377,stonyhurst,lancashire,[2002],53.845,-2.47
378,winter-hill,lancashire,"[1995, 1996, 1997, 1998, 1999, 2000, 2001, 2002, 2003, 2004, 2005, 2006, 2007, 2008, 2009, 2010, 2011, 2012]",53.626,-2.516
379,brooksby-hall-no-2,leicestershire,"[1994, 1995, 1996]",52.732,-0.996
380,caldecott-p-sta,leicestershire,[1994],52.53,-0.727
381,cottesmore,leicestershire,"[1988, 1993, 1994, 1995, 1996, 1997, 1998, 1999, 2000, 2001, 2002, 2003, 2004, 2005, 2006, 2007, 2008, 2009, 2010, 2011]",52.727,-0.656
382,newtown-linford,leicestershire,"[1994, 1995, 1996, 1997, 1998, 1999, 2000, 2001]",52.681,-1.217
383,binbrook,lincolnshire,"[1966, 1967, 1968, 1969, 1970, 1971, 1972, 1973, 1974, 1975, 1976, 1977, 1978, 1979, 1980, 1981, 1982, 1983, 1984, 1985, 1986, 1987, 1988]",53.445,-0.202
384,coningsby,lincolnshire,"[1969, 1970, 1971, 1972, 1973, 1974, 1975, 1976, 1977, 1978, 1979, 1980, 1981, 1982, 1983, 1984, 1985, 1986, 1987, 1988, 1989, 1990, 1991, 1992, 1993, 1994, 1995, 1996, 1997, 1998, 1999, 2000, 2001, 2002, 2003, 2004, 2005, 2006, 2007, 2008, 2009, 2010, 2011, 2012, 2013, 2014, 2015, 2016, 2017, 2018, 2019, 2020]",53.094,-0.173
385,cranwell,lincolnshire,"[1971, 1972, 1973, 1974, 1975, 1976, 1977, 1978, 1979, 1980, 1981, 1982, 1983, 1984, 1985, 1986, 1987, 1988, 1989, 1990, 1991, 1992, 1993, 1994, 1995, 1996, 1997, 1998, 1999, 2000, 2001, 2002, 2003, 2004, 2005, 2006, 2007, 2008, 2009, 2010, 2011, 2012, 2013, 2014, 2015, 2016, 2017, 2018, 2019, 2020]",53.031,-0.504
386,donna-nook-no-2,lincolnshire,"[1993, 1994, 1995, 1996, 1997, 1998, 1999, 2000, 2001, 2002, 2003, 2004, 2005, 2006, 2007, 2008, 2009, 2010, 2011, 2012, 2013, 2014, 2015, 2016, 2017, 2018, 2019, 2020]",53.475,0.153
387,driby,lincolnshire,"[1994, 1995, 1996, 1997, 1998]",53.249,0.077
388,holbeach-no-2,lincolnshire,"[1992, 1993, 1994, 1995, 1996, 1997, 1998, 1999, 2000, 2001, 2002, 2003, 2004, 2005, 2006, 2007, 2008, 2009, 2010, 2011, 2012, 2013, 2014, 2015, 2016, 2017, 2018, 2019, 2020]",52.873,0.139
389,kirton-horticulture,lincolnshire,"[1994, 1995, 1996, 1997, 1998, 1999, 2000, 2001]",52.937,-0.068
390,lincoln-canwick,lincolnshire,[1995],53.222,-0.505
391,manby,lincolnshire,"[1957, 1958, 1959, 1960, 1961, 1962, 1963, 1964, 1965, 1966, 1967, 1968, 1969, 1970, 1971, 1972, 1973, 1974]",53.361,0.097
392,scampton,lincolnshire,"[1974, 1975, 1976, 1977, 1978, 1979, 1980, 1981, 1982, 1983, 1984, 1985, 1986, 1987, 1988, 1989, 1990, 1991, 1992, 1993, 1994, 1995, 2001, 2002, 2003, 2004, 2005, 2006, 2007, 2008, 2009, 2010, 2011, 2012, 2013, 2014, 2015, 2016, 2017, 2018, 2019, 2020]",53.307,-0.548
393,skegness,lincolnshire,[1998],53.148,0.346
394,waddington,lincolnshire,"[1969, 1970, 1971, 1972, 1973, 1974, 1975, 1976, 1977, 1978, 1979, 1980, 1981, 1982, 1983, 1984, 1985, 1986, 1987, 1988, 1989, 1990, 1991, 1992, 1993, 1994, 1995, 1996, 1997, 1998, 1999, 2000, 2001, 2002, 2003, 2004, 2005, 2006, 2007, 2008, 2009, 2010, 2011, 2012, 2013, 2014, 2015, 2016, 2017, 2018, 2019, 2020]",53.175,-0.523
395,wainfleet-no-2,lincolnshire,"[1996, 1997, 1998, 1999, 2000, 2001, 2002, 2003, 2004, 2005, 2006, 2007, 2008, 2009, 2010, 2011, 2012, 2013, 2014, 2015, 2016, 2017, 2018, 2019, 2020]",53.088,0.271
396,aghanloo,londonderry,"[1982, 1990]",55.073,-6.947
397,ballykelly,londonderry,"[1957, 1958, 1959, 1960, 1961, 1962, 1963, 1964, 1965, 1966, 1967, 1968, 1969, 1970, 1971, 1991, 1992, 1993, 1994, 1995, 1996, 1997, 1998, 1999, 2000, 2001, 2002, 2003, 2004, 2005, 2006, 2007, 2008, 2009, 2010, 2011, 2012]",55.057,-7.008
398,banagher-caugh-hill,londonderry,"[1974, 1975, 1976, 1977, 1978, 1979, 1980, 1981, 1985, 1986, 1987, 1988, 1989, 1990, 1991, 1992, 1993, 1994, 1995, 1996, 1997, 1998, 1999, 2000, 2001]",54.886,-6.966
399,boom-hall,londonderry,[1984],55.02,-7.305
400,brookhall,londonderry,[1999],55.031,-7.288
401,coleraine-university,londonderry,"[1969, 1970, 1971, 1972, 1973, 1974, 1975, 1976, 1977, 1978, 1979, 1980, 1981, 1982, 1983, 1984, 1985, 1986, 1987, 1988, 1989, 1990, 1991, 1992, 1993, 1994, 1998, 1999, 2000, 2001, 2002]",55.154,-6.678
402,derrynoyd-forest,londonderry,[1963],54.802,-6.803
403,dungiven-bovevagh,londonderry,"[1986, 1987]",54.971,-7.023
404,lough-fea,londonderry,"[1994, 1995, 1996, 1997, 1998, 1999, 2000, 2001, 2002, 2003, 2004, 2005, 2006, 2007, 2008, 2009, 2010, 2011, 2012, 2013, 2014, 2015, 2016, 2017, 2018, 2019, 2020]",54.721,-6.815
405,loughermore-forest,londonderry,[1985],54.959,-7.089
406,magilligan-no-2,londonderry,"[2011, 2012, 2013, 2014, 2015, 2016, 2017, 2018, 2019, 2020]",55.16,-6.949
407,aigburth-rtc,merseyside,"[1970, 1971, 1972, 1973, 1974, 1975, 1976, 1977, 1978, 1979, 1980, 1981, 1982, 1983, 1984, 1985, 1986, 1987, 1988, 1989, 1990, 1991, 1992, 1993]",53.36,-2.927
408,bidston,merseyside,"[1969, 1970, 1971]",53.4,-3.075
409,crosby,merseyside,"[1996, 1997, 1998, 1999, 2000, 2001, 2002, 2003, 2004, 2005, 2006, 2007, 2008, 2009, 2010, 2011, 2012, 2013, 2014, 2015, 2016, 2017, 2018, 2019, 2020]",53.497,-3.058
410,southport,merseyside,"[1970, 1971, 1972, 1973]",53.679,-2.954
411,speke,merseyside,"[1957, 1958, 1959, 1960, 1961, 1962, 1963, 1964, 1965, 1966, 1967, 1968, 1969, 1970, 1971, 1972, 1973, 1974, 1975, 1976, 1977]",53.332,-2.847
412,aberdare,mid-glamorgan,[1976],51.718,-3.462
413,cilfynydd,mid-glamorgan,"[1974, 1975, 1976, 1977, 1978, 1979, 1980, 1981, 1982, 1983, 1984, 1985, 1986, 1987, 1988, 1989, 1990, 1991, 1992, 1993, 1994, 1995, 1996]",51.636,-3.302
414,bush-house,midlothian-in-lothian-region,"[1962, 1963, 1964, 1965, 1969, 1970, 1972, 1973, 1974, 1975, 1976, 1977, 1978, 1979, 1980, 1981, 1982, 1983, 1984, 1985, 1986, 1987, 1988, 1989, 1990, 1991, 1992, 1993, 1994, 1995, 1996, 1997, 1998, 1999]",55.86,-3.208
415,edinburgh-blackford-hill,midlothian-in-lothian-region,"[1976, 1977, 1978, 1979, 1980, 1981, 1982, 1983, 1984, 1985, 1986, 1987, 1988, 1989, 1990, 1991, 1992, 1993, 1994, 1995, 1996, 1997, 1998, 1999, 2000, 2001, 2002, 2003, 2004, 2005, 2006, 2007, 2008, 2009, 2010, 2011, 2012, 2013, 2014, 2015]",55.923,-3.191
416,edinburgh-east-craigs,midlothian-in-lothian-region,"[1959, 1960, 1961, 1962, 1963, 1964, 1965, 1966, 1967, 1968, 1969, 1970, 1971, 1972, 1973, 1974, 1975, 1976, 1977, 1978, 1979, 1980, 1981, 1982, 1983, 1984, 1985, 1986, 1987, 1988, 1989, 1990, 1991, 1992, 1993, 1994, 1995, 1996, 1997, 1998, 1999, 2000, 2001]",55.948,-3.307
417,edinburgh-gogarbank,midlothian-in-lothian-region,"[1998, 1999, 2000, 2001, 2002, 2003, 2004, 2005, 2006, 2007, 2008, 2009, 2010, 2011, 2012, 2013, 2014, 2015, 2016, 2017, 2018, 2019, 2020]",55.928,-3.344
418,turnhouse,midlothian-in-lothian-region,"[1957, 1958, 1959, 1960, 1961, 1962, 1963, 1964, 1965, 1966, 1967, 1968, 1969, 1970, 1971, 1972, 1973, 1974, 1975, 1976, 1977, 1978, 1979, 1980, 1981, 1982, 1983, 1984, 1985, 1986, 1987, 1988, 1989, 1990, 1991, 1992, 1993, 1994, 1995, 1996, 1997, 1998, 1999]",55.951,-3.348
419,aldroughty,moray-in-grampian-region,"[1985, 1986, 1987, 1988, 1989, 1990, 1991, 1992, 1993, 1994, 1995, 1996, 1997, 1998, 1999, 2000]",57.645,-3.379
420,forres-no-2,moray-in-grampian-region,[1996],57.615,-3.61
421,kinloss,moray-in-grampian-region,"[1959, 1960, 1961, 1962, 1963, 1964, 1965, 1966, 1967, 1968, 1969, 1970, 1971, 1972, 1973, 1974, 1975, 1976, 1977, 1978, 1979, 1980, 1981, 1982, 1983, 1984, 1985, 1986, 1987, 1988, 1989, 1990, 1991, 1992, 1993, 1994, 1995, 1996, 1997, 1998, 1999, 2000, 2001, 2002, 2003, 2004, 2005, 2006, 2007, 2008, 2009, 2010, 2011, 2012, 2013, 2014, 2015, 2016, 2017, 2018, 2019, 2020]",57.645,-3.563
422,lossiemouth,moray-in-grampian-region,"[1969, 1970, 1971, 1972, 1973, 1974, 1975, 1976, 1977, 1978, 1979, 1980, 1981, 1982, 1983, 1984, 1985, 1986, 1987, 1988, 1989, 1990, 1991, 1992, 1993, 1994, 1995, 1996, 1997, 1998, 1999, 2000, 2001, 2002, 2003, 2004, 2005, 2006, 2007, 2008, 2009, 2010, 2011, 2012, 2013, 2014, 2015, 2016, 2017, 2018, 2019, 2020]",57.711,-3.323
423,grantown-on-spey,moray-in-highland-region,[1984],57.335,-3.606
424,grantown-on-spey-grammar-school,moray-in-highland-region,[1996],57.334,-3.6
425,nairn,nairnshire,[1991],57.587,-3.893
426,nairn-druim,nairnshire,"[1998, 1999, 2000, 2001]",57.593,-3.822
427,bressingham,norfolk,[1988],52.387,1.052
428,coltishall,norfolk,"[1962, 1963, 1964, 1965, 1966, 1967, 1968, 1969, 1970, 1971, 1972, 1973, 1974, 1975, 1976, 1977, 1978, 1979, 1980, 1981, 1982, 1983, 1984, 1985, 1986, 1987, 1988, 1989, 1990, 1991, 1992, 1993, 1994, 1995, 1996, 1997, 1998, 1999, 2000, 2001, 2002, 2003, 2004, 2005, 2006]",52.757,1.351
429,denver,norfolk,"[1994, 1995, 1996, 1997, 1998, 1999, 2000, 2001]",52.583,0.346
430,gorleston,norfolk,"[1957, 1958, 1959, 1960, 1961, 1962, 1963, 1964, 1965, 1966, 1967, 1968, 1969, 1970, 1971, 1972, 1973, 1974, 1975, 1976, 1977, 1978, 1979, 1980, 1981, 1982, 1983, 1984, 1985, 1986, 1987, 1988, 1989, 1990, 1991, 1992, 1993, 1994, 1995, 1996, 1997, 1998, 1999, 2000, 2001, 2002, 2003, 2004, 2005, 2006, 2007, 2008, 2009, 2010, 2011, 2012, 2013, 2014, 2015, 2016]",52.572,1.738
431,hemsby,norfolk,"[1978, 1979, 1980, 1981, 1982, 1983, 1984, 1985, 1986, 1987, 1988, 1989, 1990, 1991, 1992, 1993, 1994, 1995, 1996, 1997, 1998, 1999, 2000, 2001]",52.686,1.687
432,hemsby-trial,norfolk,"[2000, 2001]",52.686,1.687
433,marham,norfolk,"[1969, 1970, 1971, 1972, 1973, 1974, 1975, 1976, 1977, 1978, 1979, 1980, 1981, 1982, 1983, 1984, 1985, 1986, 1987, 1988, 1989, 1990, 1991, 1992, 1993, 1994, 1995, 1996, 1997, 1998, 1999, 2000, 2001, 2002, 2003, 2004, 2005, 2006, 2007, 2008, 2009, 2010, 2011, 2012, 2013, 2014, 2015, 2016, 2017, 2018, 2019, 2020]",52.651,0.566
434,norwich-weather-centre,norfolk,"[1992, 1993, 1994, 1995, 1996, 1997, 1998, 1999, 2000]",52.626,1.298
435,sculthorpe,norfolk,"[1978, 1979]",52.851,0.755
436,terrington-st-clement,norfolk,"[1994, 1995, 1996, 1997, 1998, 1999, 2000, 2001]",52.745,0.288
437,tibenham-airfield,norfolk,"[2017, 2018, 2019, 2020]",52.457,1.162
438,west-raynham,norfolk,"[1967, 1968, 1972, 1973, 1974, 1975, 1976]",52.786,0.737
439,weybourne,norfolk,"[1992, 1993, 1994, 1995, 1996, 1997, 1998, 1999, 2000, 2001, 2002, 2003, 2004, 2005, 2006, 2007, 2008, 2009, 2010, 2011, 2012, 2013, 2014, 2015, 2016, 2017, 2018, 2019, 2020]",52.949,1.122
440,askham-bryan,north-yorkshire,"[1994, 1995, 1996, 1997, 1998, 1999, 2000, 2001]",53.923,-1.163
441,bainbridge,north-yorkshire,[1996],54.308,-2.101
442,cawood,north-yorkshire,"[1994, 1995, 1996, 1997, 1998, 1999, 2000, 2001]",53.828,-1.148
443,church-fenton,north-yorkshire,"[1969, 1970, 1971, 1972, 1973, 1974, 1979, 1980, 1981, 1982, 1983, 1984, 1985, 1986, 1987, 1988, 1989, 1990, 1991, 1992, 1993, 1994, 1995, 1996, 1997, 1998, 1999, 2000, 2001, 2002, 2003, 2004, 2005, 2006, 2007, 2008, 2009, 2010, 2011, 2012, 2013]",53.836,-1.199
444,dishforth-airfield,north-yorkshire,"[1993, 1994, 1995, 1996, 1997, 1998, 1999, 2000, 2001, 2002, 2003, 2004, 2005, 2006, 2007, 2008, 2009, 2010, 2011, 2012, 2013, 2014, 2015, 2016]",54.135,-1.414
445,fylingdales,north-yorkshire,"[1987, 1988, 1989, 1990, 1991, 1992, 1993, 1994, 1995, 1996, 1997, 1998, 1999, 2000, 2001, 2002, 2003, 2004, 2005, 2006, 2007, 2008, 2009, 2010, 2011, 2012, 2013, 2014, 2015, 2016, 2017, 2018, 2019, 2020]",54.359,-0.672
446,high-mowthorpe,north-yorkshire,"[1994, 1995, 1996, 1997, 1998, 1999, 2000, 2001]",54.105,-0.643
447,leeming,north-yorkshire,"[1965, 1966, 1967, 1968, 1969, 1970, 1971, 1972, 1973, 1974, 1975, 1976, 1977, 1978, 1979, 1980, 1981, 1982, 1983, 1984, 1985, 1986, 1987, 1988, 1989, 1990, 1991, 1992, 1993, 1994, 1995, 1996, 1997, 1998, 1999, 2000, 2001, 2002, 2003, 2004, 2005, 2006, 2007, 2008, 2009, 2010, 2011, 2012, 2013, 2014, 2015, 2016, 2017, 2018, 2019, 2020]",54.297,-1.533
448,linton-on-ouse,north-yorkshire,"[1974, 1975, 1976, 1977, 1978, 1979, 1980, 1981, 1982, 1983, 1984, 1985, 1986, 1987, 1988, 1989, 1990, 1991, 1992, 1993, 1994, 1995, 1996, 1997, 1998, 1999, 2000, 2001, 2002, 2003, 2004, 2005, 2006, 2007, 2008, 2009, 2010, 2011, 2012, 2013, 2014, 2015, 2016, 2017, 2018, 2019, 2020]",54.045,-1.251
449,malham-tarn,north-yorkshire,"[1982, 1994, 1995]",54.1,-2.164
450,scarborough,north-yorkshire,[1992],54.273,-0.423
451,silpho-moor,north-yorkshire,"[1970, 1971, 1972, 1973, 1974, 1975, 1976, 1977, 1978, 1979, 1980, 1981, 1982, 1983, 1984, 1985, 1986]",54.338,-0.53
452,skipton-no-2,north-yorkshire,"[1997, 1998]",53.967,-2.03
453,topcliffe,north-yorkshire,"[1997, 1998, 1999, 2000, 2001, 2002, 2003, 2004, 2005, 2006, 2007, 2008, 2009, 2010, 2011, 2012, 2013, 2014, 2015, 2016, 2017, 2018, 2019, 2020]",54.205,-1.39
454,whitby,north-yorkshire,[1996],54.481,-0.626
455,wycliffe-hall,north-yorkshire,[1997],54.521,-1.818
456,wykeham-forest,north-yorkshire,[1992],54.281,-0.568
457,albemarle,northumberland,"[2003, 2004, 2005, 2006, 2007, 2008, 2009, 2010, 2011, 2012, 2013, 2014, 2015, 2016, 2017, 2018, 2019, 2020]",55.02,-1.882
458,boulmer,northumberland,"[1975, 1976, 1977, 1978, 1979, 1980, 1981, 1982, 1983, 1984, 1985, 1986, 1987, 1988, 1989, 1990, 1991, 1992, 1993, 1994, 1995, 1996, 1997, 1998, 1999, 2000, 2001, 2002, 2003, 2004, 2005, 2006, 2007, 2008, 2009, 2010, 2011, 2012, 2013, 2014, 2015, 2016, 2017, 2018, 2019, 2020]",55.421,-1.601
459,redesdale,northumberland,"[1994, 1995, 1996, 1997, 1998, 1999, 2000, 2001]",55.253,-2.263
460,redesdale-camp,northumberland,"[1997, 1998, 1999, 2000, 2001, 2002, 2003, 2004, 2005, 2006, 2007, 2008, 2009, 2010, 2011, 2012, 2013, 2014, 2015, 2016, 2017, 2018, 2019, 2020]",55.285,-2.279
461,wallington,northumberland,[1995],55.154,-1.945
462,clarborough,nottinghamshire,"[1987, 1988, 1989, 1990, 1991, 1992, 1993]",53.341,-0.901
463,gringley-on-the-hill,nottinghamshire,"[1998, 1999, 2000, 2001]",53.406,-0.884
464,nottingham,nottinghamshire,[1982],52.95,-1.155
465,nottingham-watnall,nottinghamshire,"[1957, 1958, 1959, 1960, 1961, 1962, 1963, 1964, 1965, 1966, 1967, 1968, 1969, 1970, 1971, 1972, 1973, 1974, 1975, 1976, 1977, 1978, 1979, 1980, 1981, 1982, 1983, 1984, 1985, 1986, 1987, 1988, 1989, 1990, 1991, 1992, 1993, 1994, 1995, 1996, 1997, 1998, 1999, 2000, 2001, 2002, 2003, 2004, 2005, 2006, 2007, 2008, 2009, 2010, 2011, 2012, 2013, 2014, 2015, 2016, 2017, 2018, 2019, 2020]",53.006,-1.251
466,southwell,nottinghamshire,"[1990, 1991, 1992, 1993]",53.064,-0.963
467,sutton-bonington,nottinghamshire,"[1994, 1995, 1996, 1997, 1998, 1999, 2000, 2001, 2002, 2003, 2004, 2005, 2006, 2007, 2008, 2009, 2010, 2011, 2012, 2013, 2014, 2015, 2016, 2017, 2018, 2019, 2020]",52.836,-1.251
468,warsop,nottinghamshire,"[1994, 1995, 1996, 1997, 1998, 1999, 2000, 2001]",53.223,-1.116
469,west-retford,nottinghamshire,"[1994, 1995, 1996, 1997, 1998]",53.338,-0.956
470,wiseton,nottinghamshire,"[1994, 1995]",53.396,-0.932
471,kirkwall,orkney,"[1957, 1958, 1959, 1960, 1961, 1962, 1963, 1964, 1965, 1966, 1967, 1968, 1969, 1970, 1971, 1972, 1973, 1974, 1975, 1976, 1977, 1978, 1979, 1980, 1981, 1982, 1983, 1984, 1985, 1986, 1987, 1988, 1989, 1990, 1991, 1992, 1993, 1994, 1995, 1996, 1997, 1998, 1999, 2000, 2001, 2002, 2003, 2004, 2005, 2006, 2007, 2008, 2009, 2010, 2011, 2012, 2013, 2014, 2015, 2016, 2017, 2018, 2019, 2020]",58.953,-2.901
472,north-rona-island,orkney,"[1997, 1998, 1999, 2000, 2001, 2002, 2003, 2004, 2005, 2006, 2007, 2008, 2009]",59.124,-5.827
473,sule-skerry,orkney,"[1997, 1998, 1999, 2000, 2001, 2002, 2003, 2004, 2005, 2006, 2007, 2008, 2009, 2010, 2011, 2012, 2013, 2014, 2015, 2016, 2017, 2018, 2019]",59.082,-4.405
474,abingdon,oxfordshire,"[1957, 1958, 1959, 1960, 1961, 1962, 1963, 1964, 1965, 1966, 1967, 1968, 1969, 1970, 1971, 1972, 1973, 1974, 1975, 1976]",51.689,-1.308
475,benson,oxfordshire,"[1974, 1975, 1976, 1977, 1978, 1979, 1980, 1981, 1982, 1983, 1984, 1985, 1986, 1987, 1988, 1989, 1990, 1991, 1992, 1993, 1994, 1995, 1996, 1997, 1998, 1999, 2000, 2001, 2002, 2003, 2004, 2005, 2006, 2007, 2008, 2009, 2010, 2011, 2012, 2013, 2014, 2015, 2016, 2017, 2018, 2019, 2020]",51.62,-1.099
476,brize-norton,oxfordshire,"[1968, 1983, 1984, 1985, 1986, 1987, 1988, 1989, 1990, 1991, 1992, 1993, 1994, 1995, 1996, 1997, 1998, 1999, 2000, 2001, 2002, 2003, 2004, 2005, 2006, 2007, 2008, 2009, 2010, 2011, 2012, 2013, 2014, 2015, 2016, 2017, 2018, 2019, 2020]",51.758,-1.578
477,oxford,oxfordshire,"[1971, 1972, 1973, 1974, 1975, 1976, 1994, 1995, 1996, 1997, 1998, 1999, 2000, 2001, 2002, 2003, 2004, 2005]",51.761,-1.264
478,wallingford,oxfordshire,"[1994, 1995, 1996, 1997, 1998, 1999, 2000, 2001]",51.603,-1.113
479,blyth-bridge,peebleshire,"[1992, 1999]",55.703,-3.368
480,stanhope-farm,peebleshire,"[1959, 1960, 1961, 1962, 1963, 1964, 1965, 1966, 1967, 1968, 1969, 1970, 1971, 1972, 1973, 1974, 1975, 1976, 1977, 1984, 1985, 1986, 1987, 1988]",55.552,-3.392
481,west-linton,peebleshire,[1982],55.754,-3.356
482,balquhidder-no-2,perthshire-in-central-region,"[1982, 1983, 1984, 1985, 1986, 1987, 1988, 1989, 1990, 1991, 1992]",56.355,-4.397
483,crianlarich,perthshire-in-central-region,[1975],56.419,-4.659
484,glen-ogle,perthshire-in-central-region,"[1996, 1997, 1998, 1999, 2000, 2001, 2002, 2003, 2004, 2005, 2006, 2007, 2008, 2009, 2010, 2011, 2012, 2013, 2014, 2015, 2016, 2017, 2018, 2019, 2020]",56.423,-4.32
485,tyndrum-no-3,perthshire-in-central-region,[1998],56.419,-4.661
486,aberfeldy-mains-of-murthly,perthshire-in-tayside-region,[1999],56.62,-3.837
487,ardtalnaig,perthshire-in-tayside-region,"[1971, 1972, 1973, 1974, 1975, 1976, 1977, 1978, 1979, 1980, 1981, 1982, 1983, 1984, 1985, 1986, 1987, 1988, 1989, 1990, 1991, 1992, 1993, 1994, 1995, 1996, 1997, 1998, 1999, 2000, 2001]",56.528,-4.112
488,butterstone-lunanbank,perthshire-in-tayside-region,"[1996, 1997]",56.59,-3.485
489,drummond-castle,perthshire-in-tayside-region,"[1970, 1971, 1978, 1979, 1980, 1981, 1982, 1983, 1984, 1985, 1986, 1987, 1988, 1989, 1990, 1991, 1992, 1993, 1994, 1995, 1996, 1997, 1998, 1999, 2000, 2001]",56.338,-3.877
490,faskally,perthshire-in-tayside-region,[1987],56.718,-3.77
491,kirkmichael-no-2,perthshire-in-tayside-region,"[1997, 1998]",56.72,-3.52
492,perth,perthshire-in-tayside-region,[1979],56.399,-3.458
493,perth-aerodrome,perthshire-in-tayside-region,"[1982, 1983, 1984, 1985, 1986, 1987, 1988, 1989, 1990, 1991, 1992, 1993, 1994, 1995, 1996]",56.437,-3.372
494,strathallan-airfield,perthshire-in-tayside-region,"[1992, 1993, 1994, 1995, 1996, 1997, 1998, 1999, 2000, 2001, 2002, 2003, 2004, 2005, 2006, 2007, 2008, 2009, 2010, 2011, 2012, 2013, 2014, 2015, 2016, 2017, 2018, 2019, 2020]",56.326,-3.729
495,tummel-bridge,perthshire-in-tayside-region,"[1969, 1970, 1971, 1972, 1973, 1974, 1975, 1976, 1977, 1978, 1979, 1980, 1981, 1982, 1983, 1984, 1985, 1986, 1987, 1988, 1989, 1990, 1991, 1992]",56.706,-4.011
496,lake-vyrnwy-no-2,powys-north,"[1994, 1995, 1996, 1997, 1998, 1999, 2000, 2001, 2002, 2003, 2004, 2005, 2006, 2007, 2008, 2009, 2010, 2011, 2012, 2013, 2014, 2015, 2016, 2017, 2018, 2019, 2020]",52.757,-3.465
497,machynlleth,powys-north,[1987],52.622,-3.843
498,moel-cynnedd,powys-north,"[1994, 1995, 1996, 1997, 1998, 1999]",52.475,-3.705
499,newtown,powys-north,[1991],52.5,-3.34
500,bronydd-mawr,powys-south,"[1994, 1995, 1996, 1997, 1998, 1999, 2000, 2001]",51.964,-3.629
501,cefn-llech,powys-south,[1998],52.384,-3.537
502,libanus,powys-south,"[1995, 1996, 1997, 1998, 1999, 2000, 2001]",51.924,-3.489
503,pencelli,powys-south,[1991],51.913,-3.324
504,presteigne,powys-south,[1988],52.283,-3.052
505,sennybridge-no-2,powys-south,"[1995, 1996, 1997, 1998, 1999, 2000, 2001, 2002, 2003, 2004, 2005, 2006, 2007, 2008, 2009, 2010, 2011, 2012, 2013, 2014, 2015, 2016, 2017, 2018, 2019, 2020]",52.063,-3.615
506,abbotsinch,renfrewshire,"[1966, 1967, 1968, 1969, 1970, 1971, 1972, 1973, 1974, 1975, 1976, 1977, 1978, 1979, 1980, 1981, 1982, 1983, 1984, 1985, 1986, 1987, 1988, 1989, 1990, 1991, 1992, 1993, 1994, 1995, 1996, 1997, 1998, 1999]",55.869,-4.431
507,glasgow-bishopton,renfrewshire,"[1999, 2000, 2001, 2002, 2003, 2004, 2005, 2006, 2007, 2008, 2009, 2010, 2011, 2012, 2013, 2014, 2015, 2016, 2017, 2018, 2019, 2020]",55.907,-4.532
508,paisley,renfrewshire,"[1969, 1970, 1971, 1972, 1973, 1974, 1975, 1976, 1977, 1978, 1979, 1980, 1981, 1982, 1983, 1984, 1985]",55.845,-4.431
509,renfrew,renfrewshire,"[1949, 1950, 1951, 1952, 1953, 1954, 1955, 1956, 1957, 1958, 1959, 1960, 1961, 1962, 1963, 1964, 1965, 1966]",55.867,-4.386
510,aultbea-no-2,ross-and-cromarty,"[1991, 1992, 1993, 1994, 1995, 1996, 1997, 1998, 1999, 2000, 2001, 2002, 2003, 2004, 2005, 2006, 2007, 2008, 2009, 2010, 2011, 2012, 2013, 2014, 2015, 2016, 2017, 2018, 2019, 2020]",57.859,-5.633
511,bealach-na-ba-no-2,ross-and-cromarty,"[2001, 2002, 2003, 2004, 2005, 2006, 2007, 2008, 2009, 2010, 2011, 2012, 2013, 2014, 2015, 2016, 2017, 2018, 2019, 2020]",57.418,-5.689
512,diabaig,ross-and-cromarty,"[1978, 1979, 1980, 1981, 1982, 1983, 1984, 1985, 1986, 1987, 1989, 1991]",57.579,-5.692
513,dingwall,ross-and-cromarty,"[1998, 1999]",57.6,-4.447
514,invergordon,ross-and-cromarty,"[1979, 1980, 1981]",57.703,-4.158
515,invergordon-harbour,ross-and-cromarty,"[1984, 1985, 1986, 1987, 1988, 1989, 1990, 1991, 1992, 1993, 1994, 1995, 1996, 1997, 1998, 1999, 2000, 2001]",57.687,-4.167
516,inverpolly,ross-and-cromarty,"[1992, 1997]",58.068,-5.267
517,loch-glascarnoch,ross-and-cromarty,"[1993, 1994, 1995, 1996, 1997, 1998, 1999, 2000, 2001, 2002, 2003, 2004, 2005, 2006, 2007, 2008, 2009, 2010, 2011, 2012, 2013, 2014, 2015, 2016, 2017, 2018, 2019, 2020]",57.725,-4.895
518,plockton,ross-and-cromarty,[1999],57.337,-5.653
519,tain-range,ross-and-cromarty,"[1992, 1993, 1994, 1995, 1996, 1997, 1998, 1999, 2000, 2001, 2002, 2003, 2004, 2005, 2006, 2007, 2008, 2009, 2010, 2011, 2012, 2013, 2014, 2015, 2016, 2017, 2018, 2019, 2020]",57.819,-3.967
520,carterhouse,roxburghshire,[1997],55.358,-2.519
521,floors-castle,roxburghshire,[1995],55.603,-2.468
522,greycrook,roxburghshire,"[1975, 1976, 1977, 1978, 1979, 1980, 1981, 1982, 1983, 1984, 1985, 1986, 1987, 1988, 1989, 1990, 1991, 1992, 1993, 1994, 1995, 1996, 1997, 1998, 1999, 2000, 2001]",55.567,-2.637
523,sourhope,roxburghshire,"[1996, 1997, 1998, 1999, 2000, 2001]",55.475,-2.247
524,bowhill,selkirkshire,[1989],55.541,-2.906
525,baltasound,shetland,[1988],60.759,-0.888
526,baltasound-no-2,shetland,"[1992, 1993, 1994, 1995, 1996, 1997, 1998, 1999, 2000, 2001, 2002, 2003, 2004, 2005, 2006, 2007, 2008, 2009, 2010, 2011, 2012, 2013, 2014, 2015, 2016, 2017, 2018, 2019, 2020]",60.748,-0.856
527,fair-isle,shetland,"[1983, 1984, 1985, 1986, 1987, 1988, 1989, 1990, 1991, 1992, 1993, 1994, 1995, 1996, 1997, 1998, 1999, 2000, 2001, 2002, 2003, 2004, 2005, 2006, 2007, 2008, 2009, 2010, 2011, 2012, 2013, 2014, 2015, 2016, 2017, 2018, 2019, 2020]",59.526,-1.63
528,foula-no-2,shetland,"[1997, 1998, 1999, 2000, 2001, 2002, 2003, 2004, 2005, 2006, 2007, 2008, 2009, 2010, 2011, 2012, 2013, 2014]",60.11,-2.065
529,hamnavoe,shetland,"[1962, 1963, 1964, 1965, 1966, 1967, 1968, 1969, 1970, 1971]",60.104,-1.333
530,lerwick,shetland,"[1957, 1958, 1959, 1960, 1961, 1962, 1963, 1964, 1965, 1966, 1967, 1968, 1969, 1970, 1971, 1972, 1973, 1974, 1975, 1976, 1977, 1978, 1979, 1980, 1981, 1982, 1983, 1984, 1985, 1986, 1987, 1988, 1989, 1990, 1991, 1992, 1993, 1994, 1995, 1996, 1997, 1998, 1999, 2000, 2001, 2002, 2003, 2004, 2005, 2006, 2007, 2008, 2009, 2010, 2011, 2012, 2013, 2014, 2015, 2016, 2017, 2018, 2019, 2020]",60.139,-1.185
531,muckle-holm,shetland,"[1997, 1998, 1999, 2000, 2001, 2002, 2003, 2004]",60.581,-1.266
532,sella-ness,shetland,"[1979, 1980, 1981, 1982, 1983, 1984, 1985, 1986, 1987, 1988, 1989, 1990, 1991, 1992, 1993, 1994, 1995, 1996, 1997, 1998, 1999, 2000, 2001, 2002, 2003, 2004, 2005, 2006, 2007, 2008, 2009, 2010, 2011, 2012, 2013, 2014, 2015, 2016, 2017, 2018, 2019]",60.447,-1.278
533,sumburgh,shetland,"[1971, 1972, 1973, 1974, 1975, 1976, 1977, 1978, 1979, 1980, 1981, 1982, 1983, 1984, 1985, 1986, 1987, 1988, 1989, 1990, 1991, 1992, 1993, 1994, 1995, 1996, 1997]",59.879,-1.299
534,ludlow-w-wks,shropshire,"[1979, 1980, 1981]",52.355,-2.712
535,newport-salop,shropshire,"[1994, 1995, 1996, 1997, 1998]",52.778,-2.428
536,oswestry-school,shropshire,[1999],52.856,-3.063
537,preston-montford,shropshire,"[1994, 1995, 1996, 1997, 1998, 1999, 2000, 2001, 2008]",52.725,-2.842
538,shawbury,shropshire,"[1980, 1981, 1982, 1983, 1984, 1985, 1986, 1987, 1988, 1989, 1990, 1991, 1992, 1993, 1994, 1995, 1996, 1997, 1998, 1999, 2000, 2001, 2002, 2003, 2004, 2005, 2006, 2007, 2008, 2009, 2010, 2011, 2012, 2013, 2014, 2015, 2016, 2017, 2018, 2019, 2020]",52.795,-2.665
539,cannington,somerset,"[1996, 1997, 1998, 1999, 2000, 2001]",51.153,-3.066
540,hinkley-point,somerset,"[1983, 1984, 1985, 1986, 1987, 1988, 1989, 1990, 1991, 1992, 1993, 1994, 1995, 1996, 1997, 1998]",51.2,-3.194
541,liscombe,somerset,"[1993, 1994, 1995, 1996, 1997, 1998, 1999, 2000, 2001, 2002, 2003, 2004, 2005, 2006, 2007, 2008, 2009, 2010, 2011, 2012, 2013, 2014, 2015, 2016, 2017, 2018, 2019, 2020]",51.087,-3.609
542,nettlecombe-birds-hill,somerset,[1994],51.118,-3.349
543,rodney-stoke,somerset,[1994],51.248,-2.734
544,tivington,somerset,"[1997, 1998]",51.201,-3.531
545,yeovilton,somerset,"[1964, 1965, 1966, 1967, 1968, 1977, 1978, 1979, 1980, 1981, 1982, 1983, 1984, 1985, 1986, 1987, 1988, 1989, 1990, 1991, 1992, 1993, 1994, 1995, 1996, 1997, 1998, 1999, 2000, 2001, 2002, 2003, 2004, 2005, 2006, 2007, 2008, 2009, 2010, 2011, 2012, 2013, 2014, 2015, 2016, 2017, 2018, 2019, 2020]",51.006,-2.643
546,cardiff-weather-centre,south-glamorgan,"[1992, 1993, 1994, 1995, 1996, 1997, 1998, 1999, 2000, 2001, 2002, 2003, 2004, 2005, 2006]",51.478,-3.179
547,flat-holm,south-glamorgan,"[1993, 1994, 1995, 1996, 1997, 1998]",51.379,-3.123
548,rhoose,south-glamorgan,"[1957, 1958, 1959, 1960, 1961, 1962, 1963, 1964, 1965, 1966, 1967, 1968, 1969, 1970, 1971, 1972, 1973, 1974, 1975, 1976, 1977, 1978, 1979, 1980, 1981, 1982, 1983, 1984, 1985, 1986, 1987, 1988, 1989, 1990, 1991, 1992, 1993, 1994, 1995, 1996, 1997, 1998]",51.401,-3.344
549,st-athan,south-glamorgan,"[1997, 1998, 1999, 2000, 2001, 2002, 2003, 2004, 2005, 2006, 2007, 2008, 2009, 2010, 2011, 2012, 2013, 2014, 2015, 2016, 2017, 2018, 2019, 2020]",51.405,-3.441
550,finningley,south-yorkshire,"[1958, 1959, 1960, 1961, 1962, 1963, 1964, 1965, 1966, 1967, 1968, 1969, 1970, 1971, 1972, 1973, 1974, 1975, 1976, 1977, 1978, 1979, 1980, 1981, 1982, 1983, 1984, 1985, 1986, 1987, 1988, 1989, 1990, 1991, 1992, 1993, 1994, 1995]",53.483,-1.008
551,high-bradfield,south-yorkshire,"[1975, 1976, 1977, 1978, 1979, 1980, 1981, 1982, 1983, 1984, 1985, 1986, 1987, 1988, 1989, 1990, 1991, 1992, 1993, 1994, 1995, 1996, 1997, 1998, 1999, 2000, 2001, 2002, 2003, 2004, 2005, 2006, 2007, 2008, 2009, 2010, 2011, 2012, 2013, 2014, 2015, 2016, 2017, 2018]",53.433,-1.584
552,sheffield,south-yorkshire,"[1959, 1960, 1961, 1962, 1963, 1964, 1965, 1970, 1971, 1972, 1973, 1974, 1975, 1985]",53.381,-1.491
553,cellarhead,staffordshire,"[1977, 1978, 1979, 1980, 1981, 1982, 1983, 1984, 1985, 1986, 1987, 1988, 1989, 1990, 1991, 1992, 1993, 1994, 1995, 1996, 1997]",53.04,-2.085
554,keele,staffordshire,"[1970, 1971, 1972, 1973, 1974, 1975, 1976, 1977, 1978, 1979, 1980, 1981, 1982, 1994, 1995, 1996, 1997, 1998, 1999, 2000]",52.999,-2.27
555,leek-thorncliffe,staffordshire,"[2002, 2003, 2004, 2005, 2006, 2007, 2008, 2009, 2010, 2011, 2012, 2013, 2014, 2015, 2016, 2017, 2018, 2019, 2020]",53.128,-1.981
556,penkridge,staffordshire,"[1994, 1995, 1996, 1997, 1998, 1999]",52.702,-2.12
557,arrochymore,stirling-in-central-region,"[1980, 1981, 1982, 1983, 1984, 1985, 1986, 1987, 1988, 1989, 1990, 1991]",56.093,-4.549
558,falkirk-s-wks,stirling-in-central-region,[1994],56.018,-3.763
559,mugdock-park,stirling-in-central-region,"[1990, 1991, 1992, 1993, 1994, 1995, 1996, 1997, 1998, 1999, 2000, 2001]",55.973,-4.33
560,brooms-barn,suffolk,"[1994, 1995, 1996, 1997, 1998, 1999, 2000, 2001]",52.261,0.566
561,cavendish,suffolk,"[1994, 1995, 1996, 1997, 1998, 1999, 2000, 2001]",52.091,0.628
562,east-bergholt,suffolk,[1998],51.96,1.023
563,felixstowe,suffolk,"[1957, 1958, 1959, 1960, 1961]",51.947,1.325
564,honington,suffolk,"[1969, 1970, 1971, 1972, 1973, 1974, 1975, 1976, 1977, 1978, 1979, 1980, 1981, 1982, 1983, 1984, 1985, 1986, 1987, 1988, 1989, 1990, 1991, 1992, 1993, 1994, 1997, 1998, 1999, 2000, 2001, 2002, 2003]",52.34,0.77
565,mildenhall,suffolk,"[1949, 1950, 1951, 1952, 1953, 1954, 1955, 1956, 1957, 1958, 1959, 1960, 1961, 1962, 1963, 1964, 1965, 1966, 1967, 1968, 1969]",52.372,0.471
566,santon-downham,suffolk,"[1988, 1989, 1990, 1991, 1992, 1993, 1994, 1995, 1996, 1997, 1998, 1999, 2000, 2001]",52.459,0.671
567,wattisham,suffolk,"[1969, 1970, 1971, 1972, 1973, 1974, 1975, 1976, 1977, 1978, 1979, 1980, 1981, 1982, 1983, 1984, 1985, 1986, 1987, 1988, 1989, 1990, 1991, 1992, 1993, 1994, 1995, 1996, 1997, 1998, 1999, 2000, 2001, 2002, 2003, 2004, 2005, 2006, 2007, 2008, 2009, 2010, 2011, 2012, 2013, 2014, 2015, 2016, 2017, 2018, 2019, 2020]",52.124,0.957
568,charlwood,surrey,"[2002, 2003, 2004, 2005, 2006, 2007, 2008, 2009, 2010, 2011, 2012, 2013, 2014, 2015, 2016, 2017, 2018, 2019, 2020]",51.144,-0.229
569,merrist-wood,surrey,"[1994, 1995, 1996, 1997]",51.274,-0.618
570,mickleham,surrey,[1998],51.261,-0.321
571,redhill,surrey,"[1998, 1999, 2000, 2001, 2002, 2003, 2004, 2005, 2006]",51.215,-0.137
572,wisley,surrey,"[1994, 1995, 1996, 1997, 1998, 1999, 2000, 2001, 2002, 2003, 2004, 2005, 2006, 2007, 2008, 2009, 2010, 2011, 2012, 2013, 2014, 2015, 2016, 2017, 2018, 2019, 2020]",51.311,-0.476
573,altnaharra-no-2,sutherland,"[1993, 1994, 1995, 1996, 1997, 1998, 1999, 2000, 2001, 2002, 2003, 2004, 2005, 2006, 2007, 2008, 2009, 2010, 2011, 2012, 2013, 2014, 2015, 2016, 2017, 2018, 2019, 2020]",58.288,-4.442
574,cape-wrath,sutherland,[1997],58.625,-5
575,cassley,sutherland,[1997],58.168,-4.727
576,duartmore-bridge,sutherland,"[1980, 1981, 1982, 1983, 1984, 1985, 1986, 1987, 1988, 1989, 1990, 1991, 1992, 1993, 1994, 1995, 1996, 1997, 1998, 1999, 2000]",58.289,-5.072
577,durness-no-3,sutherland,"[1999, 2000, 2001, 2002]",58.568,-4.763
578,geisgeil,sutherland,"[1978, 1979, 1980]",58.319,-5.126
579,kinbrace-hatchery,sutherland,"[1979, 1980, 1981, 1982, 1983, 1984, 1985, 1986, 1987, 1988, 1989, 1990, 1994, 1999, 2000, 2001, 2002, 2003, 2004, 2005, 2006, 2007, 2008, 2009, 2010, 2011, 2012, 2013, 2014, 2015, 2016, 2017, 2018, 2019, 2020]",58.23,-3.922
580,lairg-no-2,sutherland,[1993],58.019,-4.407
581,strathy-east,sutherland,[1998],58.561,-3.992
582,torrisdale,sutherland,"[1980, 1981, 1982, 1983, 1984, 1985, 1986, 1987, 1988, 1989, 1990, 1991]",58.523,-4.273
583,newcastle-weather-centre,tyne-and-wear,"[1978, 1979, 1980, 1981, 1982, 1988, 1989, 1990, 1991, 1993, 1994, 1995, 1996, 1997, 1998, 1999, 2000, 2001, 2002, 2003, 2004, 2005]",54.977,-1.598
584,south-shields,tyne-and-wear,"[1970, 1971, 1972, 1973, 1974, 1975, 1976, 1977, 1978, 1979, 1980, 1981, 1982, 1983, 1984, 1985, 1986, 1987, 1988, 1989, 1990, 1991, 1992]",55.003,-1.418
585,carrigans,tyrone,"[1964, 1965, 1966, 1967, 1968, 1969, 1970, 1971, 1972, 1973, 1974, 1975, 1976, 1977, 1978, 1979, 1980, 1981, 1982, 1983, 1984, 1985, 1986, 1987, 1988, 1989, 1990, 1991, 1992]",54.675,-7.326
586,castlederg,tyrone,"[1995, 1996, 1997, 1998, 1999, 2000, 2001, 2002, 2003, 2004, 2005, 2006, 2007, 2008, 2009, 2010, 2011, 2012, 2013, 2014, 2015, 2016, 2017, 2018, 2019, 2020]",54.707,-7.577
587,cookstown,tyrone,"[1973, 1974, 1975, 1976, 1977, 1978, 1979, 1980, 1981, 1982, 1983, 1988, 1989, 1990, 1991, 1992, 1993, 1994, 1995]",54.615,-6.738
588,edenfel,tyrone,[1988],54.594,-7.283
589,lough-bradan,tyrone,"[1961, 1962, 1963, 1964, 1965, 1966, 1967, 1968, 1969, 1970, 1971, 1972, 1973, 1974, 1975, 1976, 1977, 1978, 1979, 1980, 1981, 1982, 1984]",54.6,-7.6
590,pomeroy-primary-school,tyrone,[1997],54.594,-6.922
591,church-lawford,warwickshire,"[1992, 1993, 1994, 1995, 1996, 1997, 1998, 1999, 2000, 2001, 2002, 2003, 2004, 2005, 2006, 2007, 2008, 2009, 2010, 2011, 2012, 2013, 2014, 2015, 2016, 2017, 2018, 2019, 2020]",52.359,-1.331
592,coleshill,warwickshire,"[1997, 1998, 1999, 2000, 2001, 2002, 2003, 2004, 2005, 2006, 2007, 2008, 2009, 2010, 2011, 2012, 2013, 2014, 2015, 2016, 2017, 2018, 2019, 2020]",52.48,-1.691
593,luddington,warwickshire,"[1983, 1984, 1985, 1986, 1987, 1988]",52.173,-1.757
594,rugby,warwickshire,"[1969, 1970, 1971, 1972, 1974, 1976, 1994]",52.37,-1.257
595,wellesbourne,warwickshire,"[1994, 1995, 1996, 1997, 1998, 1999, 2000, 2001]",52.206,-1.605
596,mumbles-head,west-glamorgan,"[1998, 2000, 2001, 2002, 2003, 2004, 2005, 2006, 2007, 2008, 2009, 2010, 2011, 2012, 2013, 2014, 2015, 2016, 2017, 2018, 2019, 2020]",51.566,-3.982
597,port-talbot,west-glamorgan,"[1970, 1971, 1972, 1973, 1974, 1975, 1976, 1977, 1978, 1979]",51.567,-3.754
598,blackburn-s-wks,west-lothian-in-lothian-region,"[1975, 1976, 1977, 1978]",55.872,-3.589
599,coventry-coundon,west-midlands,"[2001, 2002, 2003, 2004, 2005, 2006, 2007, 2008, 2009, 2010, 2011, 2012, 2013, 2014, 2015, 2016, 2017, 2018, 2019, 2020]",52.424,-1.536
600,elmdon,west-midlands,"[1949, 1950, 1951, 1952, 1953, 1954, 1955, 1956, 1957, 1958, 1959, 1960, 1961, 1962, 1963, 1964, 1965, 1966, 1967, 1968, 1969, 1970, 1971, 1972, 1973, 1974, 1975, 1976, 1977, 1978, 1979, 1980, 1981, 1982, 1983, 1984, 1985, 1986, 1987, 1988, 1989, 1990, 1991, 1992, 1993, 1994, 1995, 1996, 1997, 1998, 1999]",52.453,-1.742
601,halesowen,west-midlands,"[1980, 1981, 1982, 1983, 1984, 1985, 1986, 1987, 1988, 1989, 1990, 1991, 1992, 1993, 1994, 1995, 1996, 1997, 1998, 1999, 2000, 2001]",52.438,-2.076
602,halesowen-no-2,west-midlands,"[1998, 1999, 2000, 2001]",52.437,-2.076
603,bognor-regis,west-sussex,"[1994, 1995]",50.782,-0.677
604,gatwick,west-sussex,"[1958, 1959, 1960, 1961, 1962, 1963, 1964, 1965, 1966, 1967, 1968, 1969, 1970, 1971, 1972, 1973, 1974, 1975, 1976, 1977, 1978, 1979, 1980, 1981, 1982, 1983, 1984, 1985, 1986, 1987, 1988, 1989, 1990, 1991, 1992, 1993, 1994, 1995, 1996, 1997, 1998]",51.152,-0.193
605,littlehampton-toddington-lane,west-sussex,"[1995, 1996, 1997, 1998]",50.827,-0.529
606,rustington,west-sussex,"[1994, 1995]",50.821,-0.518
607,shoreham-airport,west-sussex,"[1997, 1998, 1999, 2000, 2001, 2002, 2003, 2004, 2005, 2006, 2007, 2008, 2009, 2010, 2011, 2012, 2013, 2014, 2015, 2016, 2017, 2018, 2019, 2020]",50.836,-0.294
608,shoreham-by-sea,west-sussex,"[1980, 1981, 1982, 1983, 1984, 1985, 1986, 1987, 1988, 1989, 1990, 1991, 1992]",50.827,-0.249
609,thorney-island,west-sussex,"[1957, 1958, 1959, 1960, 1961, 1962, 1963, 1964, 1965, 1966, 1967, 1968, 1969, 1970, 1971, 1972, 1973, 1974, 1975, 1976, 1977, 1980, 1981, 1982, 1983, 1984, 1985, 1986, 1987, 1988, 1989, 1991, 1992, 1993, 1994, 1995, 1996, 1997, 1998, 1999, 2000, 2001, 2002, 2003, 2004, 2005, 2006, 2007, 2008, 2009, 2010, 2011, 2012, 2013, 2014, 2015, 2016, 2017, 2018, 2019, 2020]",50.815,-0.922
610,wiggonholt,west-sussex,[1998],50.938,-0.494
611,bingley-no-2,west-yorkshire,"[1972, 1973, 1974, 1975, 1976, 1977, 1978, 1979, 1980, 1981, 1982, 1983, 1984, 1985, 1986, 1987, 1988, 1989, 1990, 1991, 1992, 1993, 1994, 1995, 1996, 1997, 1998, 1999, 2000, 2001, 2002, 2003, 2004, 2005, 2006, 2007, 2008, 2009, 2010, 2011, 2012, 2013, 2014, 2015, 2016, 2017, 2018, 2019, 2020]",53.811,-1.867
612,bramham,west-yorkshire,"[1994, 1995, 1996, 1997, 1998, 1999, 2000, 2001, 2002, 2003, 2004, 2005, 2006, 2007, 2008, 2009, 2010, 2011, 2012, 2013, 2014, 2015, 2016, 2017, 2018, 2019, 2020]",53.869,-1.319
613,emley-moor,west-yorkshire,"[1997, 1998, 1999, 2000, 2001, 2002, 2003, 2004, 2005, 2006, 2007, 2008, 2009, 2010]",53.613,-1.665
614,emley-moor-no-2,west-yorkshire,"[2011, 2012, 2013, 2014, 2015, 2016, 2017, 2018, 2019, 2020]",53.612,-1.668
615,leeds-weather-centre,west-yorkshire,"[1987, 1988, 1989, 1990, 1991, 1992, 1993, 1994, 1995, 1996, 1997, 1998, 1999, 2000, 2001, 2002, 2003]",53.801,-1.561
616,barra-w-i,western-isles,"[1997, 1998, 1999, 2000, 2001, 2002, 2003, 2004, 2005, 2006, 2007]",57.025,-7.449
617,benbecula-airport,western-isles,"[1957, 1958, 1959, 1960, 1961, 1962, 1963, 1964, 1965, 1966, 1967, 1968, 1969, 1970, 1971, 1972, 1973, 1974, 1975, 1976, 1977, 1978, 1979, 1980, 1981, 1982, 1983, 1984, 1985, 1986, 1987, 1988, 1989, 1990, 1991, 1992, 1993, 1994, 1995, 1996]",57.475,-7.371
618,butt-of-lewis,western-isles,"[1994, 1995, 1996, 1997, 1998]",58.516,-6.262
619,lochboisdale,western-isles,[2001],57.155,-7.316
620,skye-lusa,western-isles,"[1997, 1998, 1999, 2000, 2001, 2002, 2003, 2004, 2005, 2006, 2007, 2008, 2009, 2010, 2011, 2012, 2013, 2014, 2015, 2016, 2017]",57.257,-5.805
621,south-uist-range,western-isles,"[1996, 1997, 1998, 1999, 2000, 2001, 2002, 2003, 2004, 2005, 2006, 2007, 2008, 2009, 2010, 2011, 2012, 2013, 2014, 2015, 2016, 2017, 2018, 2019, 2020]",57.358,-7.385
622,stornoway-airport,western-isles,"[1957, 1958, 1959, 1960, 1961, 1962, 1963, 1964, 1965, 1966, 1967, 1968, 1969, 1970, 1971, 1972, 1973, 1974, 1975, 1976, 1977, 1978, 1979, 1980, 1981, 1982, 1983, 1984, 1985, 1986, 1987, 1988, 1989, 1990, 1991, 1992, 1993, 1994, 1995, 1996, 1997, 1998, 1999, 2000, 2001, 2002, 2003, 2004, 2005, 2006, 2007, 2008, 2009, 2010, 2011, 2012, 2013, 2014, 2015, 2016, 2017, 2018, 2019, 2020]",58.213,-6.319
623,creebridge,wigtownshire,[1992],54.96,-4.475
624,penwhirn,wigtownshire,[1978],54.983,-4.929
625,west-freugh,wigtownshire,"[1969, 1970, 1971, 1972, 1973, 1974, 1975, 1976, 1977, 1978, 1979, 1980, 1981, 1982, 1983, 1984, 1985, 1986, 1987, 1988, 1989, 1990, 1991, 1992, 1993, 1994, 1995, 1996, 1997, 1998, 1999, 2000, 2001, 2002, 2003, 2004, 2005, 2006, 2007, 2008, 2009, 2010, 2011, 2012, 2013, 2014, 2015, 2016, 2017, 2018, 2019, 2020]",54.859,-4.935
626,whithorn,wigtownshire,"[1983, 1984, 1985, 1986, 1987, 1988, 1989, 1990, 1991, 1992, 1993, 1994]",54.703,-4.418
627,boscombe-down,wiltshire,"[1957, 1958, 1959, 1960, 1961, 1962, 1963, 1964, 1965, 1966, 1967, 1968, 1969, 1970, 1971, 1972, 1973, 1974, 1975, 1976, 1977, 1978, 1979, 1980, 1981, 1982, 1983, 1984, 1985, 1986, 1987, 1988, 1989, 1990, 1991, 1992, 1993, 1994, 1995, 1996, 1997, 1998, 1999, 2000, 2001, 2002, 2003, 2004, 2005, 2006, 2007, 2008, 2009, 2010, 2011, 2012, 2013, 2014, 2015, 2016, 2017, 2018, 2019, 2020]",51.162,-1.755
628,larkhill,wiltshire,"[1957, 1958, 1959, 1960, 1961, 1962, 1963, 1964, 1965, 1966, 1967, 1968, 1970, 1971, 1972, 1973, 1974, 1975, 1976, 1977, 1978, 1979, 1980, 1981, 1982, 1983, 1984, 1985, 1986, 1987, 1988, 1989, 1990, 1991, 1992, 1993, 1994, 1995, 1996, 1997, 1998, 1999, 2000, 2001, 2002, 2003, 2004, 2005, 2006, 2007, 2008, 2009, 2010, 2011, 2012, 2013, 2014, 2015, 2016, 2017, 2018, 2019, 2020]",51.202,-1.806
629,lyneham,wiltshire,"[1976, 1977, 1978, 1979, 1980, 1981, 1982, 1983, 1984, 1985, 1986, 1987, 1988, 1989, 1990, 1991, 1992, 1993, 1994, 1995, 1996, 1997, 1998, 1999, 2000, 2001, 2002, 2003, 2004, 2005, 2006, 2007, 2008, 2009, 2010, 2011, 2012, 2013, 2014, 2015, 2016, 2017, 2018, 2019, 2020]",51.503,-1.992
630,netheravon,wiltshire,"[1993, 1994, 1995]",51.244,-1.766
631,porton,wiltshire,"[1983, 1984, 1985, 1986]",51.128,-1.701